[{"id": "8138423", "name": "젊음의거리", "cat": "관광명소", "cat2": "거리·자연", "gu": "종로구", "lon": 126.985733, "lat": 37.569235, "score": 0.9767, "stay": 30}, {"id": "467710256", "name": "익선동한옥거리", "cat": "관광명소", "cat2": "거리·자연", "gu": "종로구", "lon": 126.989776, "lat": 37.573437, "score": 0.927, "stay": 30}, {"id": "8053121", "name": "인사동거리", "cat": "관광명소", "cat2": "거리·자연", "gu": "종로구", "lon": 126.985619, "lat": 37.573361, "score": 0.8541, "stay": 30}, {"id": "21854570", "name": "세종마을음식문화거리", "cat": "관광명소", "cat2": "거리·자연", "gu": "종로구", "lon": 126.972274, "lat": 37.57657, "score": 0.8341, "stay": 30}, {"id": "7825699", "name": "대학로거리", "cat": "관광명소", "cat2": "거리·자연", "gu": "종로구", "lon": 127.003424, "lat": 37.582653, "score": 0.7858, "stay": 30}, {"id": "21273056", "name": "인사동 문화의거리", "cat": "관광명소", "cat2": "거리·자연", "gu": "종로구", "lon": 126.985592, "lat": 37.574547, "score": 0.7823, "stay": 30}, {"id": "12706273", "name": "동대문닭한마리골목", "cat": "관광명소", "cat2": "거리·자연", "gu": "종로구", "lon": 127.005615, "lat": 37.570295, "score": 0.7671, "stay": 30}, {"id": "924441213", "name": "돈의동갈매기살골목", "cat": "관광명소", "cat2": "거리·자연", "gu": "종로구", "lon": 126.990881, "lat": 37.573127, "score": 0.7576, "stay": 30}, {"id": "7843397", "name": "동대문생선구이골목", "cat": "관광명소", "cat2": "거리·자연", "gu": "종로구", "lon": 127.005864, "lat": 37.570093, "score": 0.7564, "stay": 30}, {"id": "101141684", "name": "광장시장 전골목", "cat": "관광명소", "cat2": "거리·자연", "gu": "종로구", "lon": 127.000634, "lat": 37.570562, "score": 0.7483, "stay": 30}, {"id": "11582825", "name": "동대문패션타운", "cat": "관광명소", "cat2": "거리·자연", "gu": "종로구", "lon": 127.008666, "lat": 37.568662, "score": 0.7418, "stay": 30}, {"id": "7833790", "name": "돈암동거리", "cat": "관광명소", "cat2": "거리·자연", "gu": "성북구", "lon": 127.018715, "lat": 37.592325, "score": 0.708, "stay": 30}, {"id": "133553180", "name": "락희거리", "cat": "관광명소", "cat2": "거리·자연", "gu": "종로구", "lon": 126.988277, "lat": 37.572212, "score": 0.703, "stay": 30}, {"id": "25623277", "name": "낙원동아구찜거리", "cat": "관광명소", "cat2": "거리·자연", "gu": "종로구", "lon": 126.988118, "lat": 37.573394, "score": 0.6936, "stay": 30}, {"id": "8383806", "name": "삼청동거리", "cat": "관광명소", "cat2": "거리·자연", "gu": "종로구", "lon": 126.981483, "lat": 37.582064, "score": 0.689, "stay": 30}, {"id": "26455447", "name": "종로5가곱창골목", "cat": "관광명소", "cat2": "거리·자연", "gu": "종로구", "lon": 127.004555, "lat": 37.570414, "score": 0.676, "stay": 30}, {"id": "441239178", "name": "동대문종합시장 먹거리장터", "cat": "관광명소", "cat2": "거리·자연", "gu": "종로구", "lon": 127.006684, "lat": 37.570835, "score": 0.6711, "stay": 30}, {"id": "52725578", "name": "네팔음식거리", "cat": "관광명소", "cat2": "거리·자연", "gu": "종로구", "lon": 127.012149, "lat": 37.572954, "score": 0.655, "stay": 30}, {"id": "10788332", "name": "종로귀금속거리", "cat": "관광명소", "cat2": "거리·자연", "gu": "종로구", "lon": 126.992882, "lat": 37.571816, "score": 0.6416, "stay": 30}, {"id": "649534068", "name": "런닝맨 인사동점", "cat": "관광명소", "cat2": "거리·자연", "gu": "종로구", "lon": 126.98723, "lat": 37.571896, "score": 0.6414, "stay": 30}, {"id": "66105607", "name": "태화관길", "cat": "관광명소", "cat2": "거리·자연", "gu": "종로구", "lon": 126.985375, "lat": 37.572756, "score": 0.6358, "stay": 30}, {"id": "22017010", "name": "굴보쌈골목", "cat": "관광명소", "cat2": "거리·자연", "gu": "종로구", "lon": 126.99113, "lat": 37.569902, "score": 0.628, "stay": 30}, {"id": "10771162", "name": "창덕궁", "cat": "관광명소", "cat2": "명소·유적", "gu": "종로구", "lon": 126.991, "lat": 37.579647, "score": 0.6232, "stay": 30}, {"id": "22301151", "name": "창신동족발골목", "cat": "관광명소", "cat2": "거리·자연", "gu": "종로구", "lon": 127.011836, "lat": 37.572814, "score": 0.6164, "stay": 30}, {"id": "8182822", "name": "관철동불닭골목", "cat": "관광명소", "cat2": "거리·자연", "gu": "종로구", "lon": 126.984465, "lat": 37.56904, "score": 0.6048, "stay": 30}, {"id": "15371516", "name": "백호한국도자기", "cat": "관광명소", "cat2": "거리·자연", "gu": "중구", "lon": 127.007407, "lat": 37.566774, "score": 0.5821, "stay": 30}, {"id": "27068488", "name": "한화불꽃길", "cat": "관광명소", "cat2": "거리·자연", "gu": "종로구", "lon": 126.988056, "lat": 37.568172, "score": 0.5735, "stay": 30}, {"id": "26611879", "name": "서울중앙시장 쌈밥골목", "cat": "관광명소", "cat2": "거리·자연", "gu": "중구", "lon": 127.01979, "lat": 37.566794, "score": 0.5667, "stay": 30}, {"id": "95182613", "name": "서울명예도로 소나무길", "cat": "관광명소", "cat2": "거리·자연", "gu": "종로구", "lon": 127.000231, "lat": 37.582184, "score": 0.5592, "stay": 30}, {"id": "8465462", "name": "운현궁", "cat": "관광명소", "cat2": "명소·유적", "gu": "종로구", "lon": 126.987086, "lat": 37.576226, "score": 0.558, "stay": 30}, {"id": "25968113", "name": "청계천헌책방거리", "cat": "관광명소", "cat2": "거리·자연", "gu": "종로구", "lon": 127.005891, "lat": 37.569441, "score": 0.5562, "stay": 30}, {"id": "1906815470", "name": "땡삐골목", "cat": "관광명소", "cat2": "거리·자연", "gu": "종로구", "lon": 127.00639, "lat": 37.57128, "score": 0.5524, "stay": 30}, {"id": "1859752981", "name": "서울명예도로 송해길", "cat": "관광명소", "cat2": "거리·자연", "gu": "종로구", "lon": 126.989169, "lat": 37.571624, "score": 0.5512, "stay": 30}, {"id": "89600838", "name": "종로신백제 골목형상점가", "cat": "관광명소", "cat2": "거리·자연", "gu": "종로구", "lon": 127.00635, "lat": 37.571259, "score": 0.5503, "stay": 30}, {"id": "26558564", "name": "동네골목길관광코스 16코스(세종마을)", "cat": "관광명소", "cat2": "거리·자연", "gu": "종로구", "lon": 126.970063, "lat": 37.579452, "score": 0.5365, "stay": 30}, {"id": "1374003386", "name": "의료기기상가", "cat": "관광명소", "cat2": "거리·자연", "gu": "종로구", "lon": 126.993642, "lat": 37.570232, "score": 0.5326, "stay": 30}, {"id": "871317809", "name": "창신동인장거리", "cat": "관광명소", "cat2": "거리·자연", "gu": "종로구", "lon": 127.013511, "lat": 37.572086, "score": 0.527, "stay": 30}, {"id": "11156260", "name": "창경궁", "cat": "관광명소", "cat2": "명소·유적", "gu": "종로구", "lon": 126.9952, "lat": 37.579417, "score": 0.5259, "stay": 30}, {"id": "575737442", "name": "봉제골목", "cat": "관광명소", "cat2": "거리·자연", "gu": "종로구", "lon": 127.010292, "lat": 37.574241, "score": 0.5252, "stay": 30}, {"id": "2112940369", "name": "신당동패션거리", "cat": "관광명소", "cat2": "거리·자연", "gu": "중구", "lon": 127.014058, "lat": 37.566005, "score": 0.5221, "stay": 30}, {"id": "716748422", "name": "을지로노가리골목", "cat": "관광명소", "cat2": "거리·자연", "gu": "종로구", "lon": 126.991791, "lat": 37.567195, "score": 0.5125, "stay": 30}, {"id": "2067274444", "name": "수족관거리", "cat": "관광명소", "cat2": "거리·자연", "gu": "종로구", "lon": 127.014304, "lat": 37.570734, "score": 0.507, "stay": 30}, {"id": "11635437", "name": "을지한빛거리", "cat": "관광명소", "cat2": "거리·자연", "gu": "종로구", "lon": 126.985756, "lat": 37.567205, "score": 0.5014, "stay": 30}, {"id": "26563614", "name": "덕수궁산책길", "cat": "관광명소", "cat2": "거리·자연", "gu": "종로구", "lon": 126.971964, "lat": 37.569117, "score": 0.4986, "stay": 30}, {"id": "26563941", "name": "서울도보관광코스 인사동~운현궁코스", "cat": "관광명소", "cat2": "거리·자연", "gu": "종로구", "lon": 126.98417, "lat": 37.573927, "score": 0.4905, "stay": 30}, {"id": "26558554", "name": "동네골목길관광코스 10코스(종로5.6가동)", "cat": "관광명소", "cat2": "거리·자연", "gu": "종로구", "lon": 127.006511, "lat": 37.57125, "score": 0.4873, "stay": 30}, {"id": "26558551", "name": "동네골목길관광코스 9코스(종로1.2.3.4가)", "cat": "관광명소", "cat2": "거리·자연", "gu": "종로구", "lon": 126.986412, "lat": 37.57277, "score": 0.4805, "stay": 30}, {"id": "10166255", "name": "경희궁", "cat": "관광명소", "cat2": "명소·유적", "gu": "종로구", "lon": 126.968649, "lat": 37.570788, "score": 0.4795, "stay": 30}, {"id": "25192446", "name": "낙산", "cat": "관광명소", "cat2": "거리·자연", "gu": "종로구", "lon": 127.008769, "lat": 37.580386, "score": 0.4795, "stay": 30}, {"id": "26563579", "name": "도심고궁나들길", "cat": "관광명소", "cat2": "거리·자연", "gu": "종로구", "lon": 126.989408, "lat": 37.579002, "score": 0.4769, "stay": 30}, {"id": "27479253", "name": "청계천 애완동물거리", "cat": "관광명소", "cat2": "거리·자연", "gu": "종로구", "lon": 127.015331, "lat": 37.570016, "score": 0.4748, "stay": 30}, {"id": "1635974981", "name": "을지로타일상가", "cat": "관광명소", "cat2": "거리·자연", "gu": "종로구", "lon": 126.988984, "lat": 37.566373, "score": 0.4735, "stay": 30}, {"id": "27215154", "name": "다이나믹메이즈 서울인사동점", "cat": "관광명소", "cat2": "거리·자연", "gu": "종로구", "lon": 126.98715, "lat": 37.571898, "score": 0.4663, "stay": 30}, {"id": "1668733422", "name": "서울명예도로 옥류동천길", "cat": "관광명소", "cat2": "거리·자연", "gu": "종로구", "lon": 126.970058, "lat": 37.579236, "score": 0.4617, "stay": 30}, {"id": "26635948", "name": "서학당길", "cat": "관광명소", "cat2": "거리·자연", "gu": "종로구", "lon": 126.975664, "lat": 37.56777, "score": 0.4549, "stay": 30}, {"id": "26563921", "name": "동네골목길관광코스 종교문화유적길", "cat": "관광명소", "cat2": "거리·자연", "gu": "종로구", "lon": 126.982802, "lat": 37.574002, "score": 0.454, "stay": 30}, {"id": "7813428", "name": "창덕궁 후원", "cat": "관광명소", "cat2": "명소·유적", "gu": "종로구", "lon": 126.991618, "lat": 37.581827, "score": 0.4529, "stay": 30}, {"id": "26572390", "name": "clayu", "cat": "관광명소", "cat2": "거리·자연", "gu": "종로구", "lon": 126.989336, "lat": 37.574702, "score": 0.451, "stay": 30}, {"id": "26563935", "name": "서울도보관광코스 세종마을", "cat": "관광명소", "cat2": "거리·자연", "gu": "종로구", "lon": 126.970094, "lat": 37.580725, "score": 0.4487, "stay": 30}, {"id": "1786577800", "name": "토전김익영도자예술", "cat": "관광명소", "cat2": "거리·자연", "gu": "종로구", "lon": 126.989302, "lat": 37.578908, "score": 0.4359, "stay": 30}, {"id": "12016888", "name": "해림도기", "cat": "관광명소", "cat2": "거리·자연", "gu": "종로구", "lon": 127.008232, "lat": 37.570356, "score": 0.4282, "stay": 30}, {"id": "12898476", "name": "창덕궁 검서청", "cat": "관광명소", "cat2": "명소·유적", "gu": "종로구", "lon": 126.989807, "lat": 37.579085, "score": 0.4175, "stay": 30}, {"id": "7907048", "name": "부용지", "cat": "관광명소", "cat2": "거리·자연", "gu": "종로구", "lon": 126.992922, "lat": 37.581705, "score": 0.4175, "stay": 30}, {"id": "11002870", "name": "창경궁 대온실", "cat": "관광명소", "cat2": "거리·자연", "gu": "종로구", "lon": 126.994, "lat": 37.583017, "score": 0.4152, "stay": 30}, {"id": "12898473", "name": "창덕궁 옥당", "cat": "관광명소", "cat2": "명소·유적", "gu": "종로구", "lon": 126.990106, "lat": 37.578908, "score": 0.4119, "stay": 30}, {"id": "26563584", "name": "성북동고택북촌 산책길", "cat": "관광명소", "cat2": "거리·자연", "gu": "성북구", "lon": 126.993673, "lat": 37.594683, "score": 0.4031, "stay": 30}, {"id": "1176793419", "name": "오롯한손길", "cat": "관광명소", "cat2": "거리·자연", "gu": "성북구", "lon": 127.02453, "lat": 37.603476, "score": 0.4026, "stay": 30}, {"id": "17408888", "name": "경운궁 양이재", "cat": "관광명소", "cat2": "명소·유적", "gu": "종로구", "lon": 126.975465, "lat": 37.566998, "score": 0.4001, "stay": 30}, {"id": "18619553", "name": "경복궁", "cat": "관광명소", "cat2": "명소·유적", "gu": "종로구", "lon": 126.976898, "lat": 37.577613, "score": 0.4, "stay": 30}, {"id": "17808960", "name": "창덕궁 성정각", "cat": "관광명소", "cat2": "명소·유적", "gu": "종로구", "lon": 126.992632, "lat": 37.579373, "score": 0.3975, "stay": 30}, {"id": "8342732", "name": "북악산", "cat": "관광명소", "cat2": "거리·자연", "gu": "종로구", "lon": 126.973731, "lat": 37.593, "score": 0.3944, "stay": 30}, {"id": "20315352", "name": "효성한국도자기", "cat": "관광명소", "cat2": "거리·자연", "gu": "종로구", "lon": 126.998669, "lat": 37.571484, "score": 0.3939, "stay": 30}, {"id": "26558560", "name": "동네골목길관광코스 12코스(혜화동)", "cat": "관광명소", "cat2": "거리·자연", "gu": "종로구", "lon": 127.000774, "lat": 37.586016, "score": 0.3939, "stay": 30}, {"id": "12898606", "name": "창덕궁 진설청", "cat": "관광명소", "cat2": "명소·유적", "gu": "종로구", "lon": 126.990001, "lat": 37.579488, "score": 0.392, "stay": 30}, {"id": "1841732402", "name": "세실마루", "cat": "관광명소", "cat2": "거리·자연", "gu": "종로구", "lon": 126.976173, "lat": 37.566723, "score": 0.3888, "stay": 30}, {"id": "10740679", "name": "인왕산", "cat": "관광명소", "cat2": "거리·자연", "gu": "서대문구", "lon": 126.957844, "lat": 37.5849, "score": 0.3871, "stay": 30}, {"id": "8346665", "name": "문화의벽", "cat": "관광명소", "cat2": "거리·자연", "gu": "종로구", "lon": 127.008263, "lat": 37.569812, "score": 0.3868, "stay": 30}, {"id": "2124221889", "name": "서울명예도로 박수근길", "cat": "관광명소", "cat2": "거리·자연", "gu": "종로구", "lon": 127.01578, "lat": 37.571429, "score": 0.378, "stay": 30}, {"id": "26558537", "name": "동네골목길관광코스 3코스(삼청동)", "cat": "관광명소", "cat2": "거리·자연", "gu": "종로구", "lon": 126.982298, "lat": 37.583664, "score": 0.3692, "stay": 30}, {"id": "12898418", "name": "창덕궁 상량정", "cat": "관광명소", "cat2": "명소·유적", "gu": "종로구", "lon": 126.993438, "lat": 37.579045, "score": 0.3629, "stay": 30}, {"id": "24890732", "name": "창덕궁 승화루", "cat": "관광명소", "cat2": "명소·유적", "gu": "종로구", "lon": 126.99313, "lat": 37.579088, "score": 0.3553, "stay": 30}, {"id": "24890712", "name": "창덕궁 영의사", "cat": "관광명소", "cat2": "명소·유적", "gu": "종로구", "lon": 126.990115, "lat": 37.579276, "score": 0.3521, "stay": 30}, {"id": "12898444", "name": "창덕궁 수강재", "cat": "관광명소", "cat2": "명소·유적", "gu": "종로구", "lon": 126.993864, "lat": 37.57853, "score": 0.3507, "stay": 30}, {"id": "24890733", "name": "창덕궁 삼삼와", "cat": "관광명소", "cat2": "명소·유적", "gu": "종로구", "lon": 126.99309, "lat": 37.579182, "score": 0.3459, "stay": 30}, {"id": "1321024179", "name": "이화달팽이길", "cat": "관광명소", "cat2": "거리·자연", "gu": "종로구", "lon": 127.007573, "lat": 37.576899, "score": 0.3445, "stay": 30}, {"id": "12898412", "name": "창덕궁 관물헌", "cat": "관광명소", "cat2": "명소·유적", "gu": "종로구", "lon": 126.992777, "lat": 37.57951, "score": 0.3435, "stay": 30}, {"id": "7904649", "name": "북악스카이웨이", "cat": "관광명소", "cat2": "거리·자연", "gu": "종로구", "lon": 126.977084, "lat": 37.600851, "score": 0.3429, "stay": 30}, {"id": "12898610", "name": "창덕궁 양지당", "cat": "관광명소", "cat2": "명소·유적", "gu": "종로구", "lon": 126.990463, "lat": 37.579478, "score": 0.3324, "stay": 30}, {"id": "26558548", "name": "동네골목길관광코스 8코스(가회동)", "cat": "관광명소", "cat2": "거리·자연", "gu": "종로구", "lon": 126.982203, "lat": 37.581178, "score": 0.3315, "stay": 30}, {"id": "8228024", "name": "운현궁 노안당", "cat": "관광명소", "cat2": "명소·유적", "gu": "종로구", "lon": 126.987466, "lat": 37.575898, "score": 0.3293, "stay": 30}, {"id": "12898505", "name": "창덕궁 석복헌", "cat": "관광명소", "cat2": "명소·유적", "gu": "종로구", "lon": 126.993706, "lat": 37.578656, "score": 0.3265, "stay": 30}, {"id": "1232690719", "name": "청수장계곡", "cat": "관광명소", "cat2": "거리·자연", "gu": "성북구", "lon": 126.999212, "lat": 37.616775, "score": 0.3186, "stay": 30}, {"id": "1371832206", "name": "서울둘레길 19코스 사색에 잠겨 걷는 호젓한 숲길", "cat": "관광명소", "cat2": "거리·자연", "gu": "성북구", "lon": 127.002656, "lat": 37.617283, "score": 0.318, "stay": 30}, {"id": "7891659", "name": "백사실계곡", "cat": "관광명소", "cat2": "거리·자연", "gu": "종로구", "lon": 126.965439, "lat": 37.600718, "score": 0.3045, "stay": 30}, {"id": "26558865", "name": "동네골목길관광코스 13코스(명륜동)", "cat": "관광명소", "cat2": "거리·자연", "gu": "종로구", "lon": 126.995983, "lat": 37.584231, "score": 0.3027, "stay": 30}, {"id": "323625141", "name": "서울명예도로 한글로", "cat": "관광명소", "cat2": "거리·자연", "gu": "종로구", "lon": 126.970437, "lat": 37.582912, "score": 0.3027, "stay": 30}, {"id": "1474709844", "name": "북한산자락길", "cat": "관광명소", "cat2": "거리·자연", "gu": "성북구", "lon": 127.005632, "lat": 37.620873, "score": 0.2974, "stay": 30}, {"id": "12699510", "name": "삼청동길", "cat": "관광명소", "cat2": "거리·자연", "gu": "종로구", "lon": 126.981743, "lat": 37.590645, "score": 0.2974, "stay": 30}, {"id": "8623102", "name": "황학정", "cat": "관광명소", "cat2": "명소·유적", "gu": "종로구", "lon": 126.963957, "lat": 37.577907, "score": 0.2968, "stay": 30}, {"id": "12898461", "name": "창덕궁 관람정", "cat": "관광명소", "cat2": "명소·유적", "gu": "종로구", "lon": 126.993193, "lat": 37.583965, "score": 0.2965, "stay": 30}, {"id": "26558556", "name": "동네골목길관광코스 11코스(이화동)", "cat": "관광명소", "cat2": "거리·자연", "gu": "종로구", "lon": 127.004474, "lat": 37.578937, "score": 0.295, "stay": 30}, {"id": "26563922", "name": "동네골목길관광코스 문학둘레길", "cat": "관광명소", "cat2": "거리·자연", "gu": "종로구", "lon": 126.973817, "lat": 37.579367, "score": 0.2942, "stay": 30}, {"id": "12735945", "name": "경희궁 숭정전", "cat": "관광명소", "cat2": "명소·유적", "gu": "종로구", "lon": 126.968078, "lat": 37.571372, "score": 0.2942, "stay": 30}, {"id": "973348665", "name": "녹산", "cat": "관광명소", "cat2": "거리·자연", "gu": "종로구", "lon": 126.97867, "lat": 37.582979, "score": 0.2894, "stay": 30}, {"id": "26564580", "name": "인왕산둘레길", "cat": "관광명소", "cat2": "거리·자연", "gu": "종로구", "lon": 126.964745, "lat": 37.583192, "score": 0.2887, "stay": 30}, {"id": "1847315467", "name": "인왕산둘레길", "cat": "관광명소", "cat2": "거리·자연", "gu": "종로구", "lon": 126.961831, "lat": 37.578284, "score": 0.2887, "stay": 30}, {"id": "19175159", "name": "청운대", "cat": "관광명소", "cat2": "거리·자연", "gu": "종로구", "lon": 126.975157, "lat": 37.594898, "score": 0.285, "stay": 30}, {"id": "133864079", "name": "말바위전망대", "cat": "관광명소", "cat2": "거리·자연", "gu": "성북구", "lon": 126.986061, "lat": 37.593278, "score": 0.2849, "stay": 30}, {"id": "7989730", "name": "창덕궁 애련정", "cat": "관광명소", "cat2": "명소·유적", "gu": "종로구", "lon": 126.993107, "lat": 37.582934, "score": 0.2819, "stay": 30}, {"id": "26563934", "name": "서울도보관광코스 북촌한옥마을", "cat": "관광명소", "cat2": "거리·자연", "gu": "종로구", "lon": 126.9853, "lat": 37.581805, "score": 0.2815, "stay": 30}, {"id": "10760976", "name": "이화대학로거리", "cat": "관광명소", "cat2": "거리·자연", "gu": "종로구", "lon": 127.002758, "lat": 37.580213, "score": 0.2791, "stay": 30}, {"id": "12898440", "name": "창덕궁 취운정", "cat": "관광명소", "cat2": "명소·유적", "gu": "종로구", "lon": 126.99395, "lat": 37.578743, "score": 0.2775, "stay": 30}, {"id": "17577062", "name": "덕수궁 즉조당", "cat": "관광명소", "cat2": "명소·유적", "gu": "중구", "lon": 126.974981, "lat": 37.566288, "score": 0.2726, "stay": 30}, {"id": "8493027", "name": "창덕궁 영화당", "cat": "관광명소", "cat2": "명소·유적", "gu": "종로구", "lon": 126.993162, "lat": 37.581874, "score": 0.2723, "stay": 30}, {"id": "26558536", "name": "동네골목길관광코스 2코스(사직동오솔길)", "cat": "관광명소", "cat2": "거리·자연", "gu": "종로구", "lon": 126.968285, "lat": 37.575635, "score": 0.2641, "stay": 30}, {"id": "12898612", "name": "창덕궁 내재실", "cat": "관광명소", "cat2": "명소·유적", "gu": "종로구", "lon": 126.990296, "lat": 37.579534, "score": 0.2641, "stay": 30}, {"id": "17990926", "name": "인왕산 수성동계곡", "cat": "관광명소", "cat2": "거리·자연", "gu": "종로구", "lon": 126.962903, "lat": 37.582248, "score": 0.2598, "stay": 30}, {"id": "17766894", "name": "삼천사계곡", "cat": "관광명소", "cat2": "거리·자연", "gu": "은평구", "lon": 126.955323, "lat": 37.640167, "score": 0.2567, "stay": 30}, {"id": "8116578", "name": "창경궁 춘당지", "cat": "관광명소", "cat2": "거리·자연", "gu": "종로구", "lon": 126.994973, "lat": 37.581719, "score": 0.2558, "stay": 30}, {"id": "12898596", "name": "창덕궁 의두합", "cat": "관광명소", "cat2": "명소·유적", "gu": "종로구", "lon": 126.993139, "lat": 37.582404, "score": 0.2547, "stay": 30}, {"id": "12898472", "name": "창덕궁 농수정", "cat": "관광명소", "cat2": "명소·유적", "gu": "종로구", "lon": 126.992829, "lat": 37.583374, "score": 0.2529, "stay": 30}, {"id": "26563924", "name": "동네골목길관광코스 북촌코스", "cat": "관광명소", "cat2": "거리·자연", "gu": "종로구", "lon": 126.984272, "lat": 37.581859, "score": 0.252, "stay": 30}, {"id": "26558547", "name": "동네골목길관광코스 7코스(교남동)", "cat": "관광명소", "cat2": "거리·자연", "gu": "종로구", "lon": 126.964079, "lat": 37.57372, "score": 0.252, "stay": 30}, {"id": "12898422", "name": "창덕궁 한정당", "cat": "관광명소", "cat2": "명소·유적", "gu": "종로구", "lon": 126.993746, "lat": 37.578919, "score": 0.2503, "stay": 30}, {"id": "26558539", "name": "동네골목길관광코스 4코스(부암동)", "cat": "관광명소", "cat2": "거리·자연", "gu": "종로구", "lon": 126.96391, "lat": 37.596116, "score": 0.2503, "stay": 30}, {"id": "694424070", "name": "인왕산길", "cat": "관광명소", "cat2": "거리·자연", "gu": "종로구", "lon": 126.971964, "lat": 37.596475, "score": 0.2422, "stay": 30}, {"id": "12898443", "name": "창덕궁 선향재", "cat": "관광명소", "cat2": "명소·유적", "gu": "종로구", "lon": 126.992709, "lat": 37.583237, "score": 0.2389, "stay": 30}, {"id": "26558570", "name": "서울도보관광코스 1코스(청계천)", "cat": "관광명소", "cat2": "거리·자연", "gu": "종로구", "lon": 126.995504, "lat": 37.568727, "score": 0.2385, "stay": 30}, {"id": "26563952", "name": "서울도보관광코스 창덕궁~생태코스", "cat": "관광명소", "cat2": "거리·자연", "gu": "종로구", "lon": 126.991152, "lat": 37.579121, "score": 0.2385, "stay": 30}, {"id": "26564597", "name": "서울천주교순례길 말씀의길", "cat": "관광명소", "cat2": "거리·자연", "gu": "종로구", "lon": 126.99655, "lat": 37.576234, "score": 0.2385, "stay": 30}, {"id": "1711653106", "name": "무무대전망대", "cat": "관광명소", "cat2": "거리·자연", "gu": "종로구", "lon": 126.963673, "lat": 37.583876, "score": 0.2248, "stay": 30}, {"id": "1231421400", "name": "서울명예도로 고하길", "cat": "관광명소", "cat2": "거리·자연", "gu": "종로구", "lon": 126.987361, "lat": 37.583081, "score": 0.2232, "stay": 30}, {"id": "137596839", "name": "평창동 마을길", "cat": "관광명소", "cat2": "거리·자연", "gu": "종로구", "lon": 126.961988, "lat": 37.607848, "score": 0.2219, "stay": 30}, {"id": "450093031", "name": "고종의길", "cat": "관광명소", "cat2": "거리·자연", "gu": "종로구", "lon": 126.972675, "lat": 37.567736, "score": 0.2198, "stay": 30}, {"id": "26563972", "name": "서울도보관광코스 낙산성곽", "cat": "관광명소", "cat2": "거리·자연", "gu": "종로구", "lon": 127.008133, "lat": 37.578854, "score": 0.2133, "stay": 30}, {"id": "25731320", "name": "구기계곡", "cat": "관광명소", "cat2": "거리·자연", "gu": "종로구", "lon": 126.965941, "lat": 37.621182, "score": 0.2132, "stay": 30}, {"id": "490253006", "name": "돌산마을 조망점", "cat": "관광명소", "cat2": "거리·자연", "gu": "종로구", "lon": 127.012073, "lat": 37.576374, "score": 0.2126, "stay": 30}, {"id": "8059682", "name": "자생식물학습장", "cat": "관광명소", "cat2": "거리·자연", "gu": "종로구", "lon": 126.994951, "lat": 37.582664, "score": 0.207, "stay": 30}, {"id": "26563947", "name": "서울도보관광코스 창덕궁", "cat": "관광명소", "cat2": "거리·자연", "gu": "종로구", "lon": 126.991953, "lat": 37.579283, "score": 0.2055, "stay": 30}, {"id": "17932958", "name": "평창계곡", "cat": "관광명소", "cat2": "거리·자연", "gu": "종로구", "lon": 126.977813, "lat": 37.618218, "score": 0.2049, "stay": 30}, {"id": "492112565", "name": "하늘전망대", "cat": "관광명소", "cat2": "거리·자연", "gu": "종로구", "lon": 126.985844, "lat": 37.606433, "score": 0.1976, "stay": 30}, {"id": "464923899", "name": "낙산공원 제3전망광장", "cat": "관광명소", "cat2": "거리·자연", "gu": "종로구", "lon": 127.007155, "lat": 37.583071, "score": 0.1961, "stay": 30}, {"id": "26563963", "name": "서울도보관광코스 성균관유생들의이야기", "cat": "관광명소", "cat2": "거리·자연", "gu": "종로구", "lon": 126.995924, "lat": 37.585673, "score": 0.1846, "stay": 30}, {"id": "1909366047", "name": "서울명예도로 송강길", "cat": "관광명소", "cat2": "거리·자연", "gu": "종로구", "lon": 126.971863, "lat": 37.585399, "score": 0.1846, "stay": 30}, {"id": "26563919", "name": "동네골목길관광코스 세종한울길", "cat": "관광명소", "cat2": "거리·자연", "gu": "종로구", "lon": 126.979428, "lat": 37.578535, "score": 0.1846, "stay": 30}, {"id": "18741274", "name": "서울 한양도성 백악구간", "cat": "관광명소", "cat2": "거리·자연", "gu": "성북구", "lon": 126.985996, "lat": 37.593727, "score": 0.1828, "stay": 30}, {"id": "12898512", "name": "창덕궁 농산정", "cat": "관광명소", "cat2": "명소·유적", "gu": "종로구", "lon": 126.991613, "lat": 37.58182, "score": 0.1803, "stay": 30}, {"id": "17980223", "name": "낙산공원 제2전망광장", "cat": "관광명소", "cat2": "거리·자연", "gu": "종로구", "lon": 127.006739, "lat": 37.582476, "score": 0.1799, "stay": 30}, {"id": "18607919", "name": "북한산생태숲 앞", "cat": "관광명소", "cat2": "거리·자연", "gu": "성북구", "lon": 127.007005, "lat": 37.621219, "score": 0.1786, "stay": 30}, {"id": "269490976", "name": "궁궐담장길", "cat": "관광명소", "cat2": "거리·자연", "gu": "종로구", "lon": 126.994136, "lat": 37.57707, "score": 0.1715, "stay": 30}, {"id": "18607928", "name": "솔샘길전망대(쉼터)", "cat": "관광명소", "cat2": "거리·자연", "gu": "성북구", "lon": 127.005677, "lat": 37.620657, "score": 0.1496, "stay": 30}, {"id": "26558542", "name": "동네골목길관광코스 5코스(평창동)", "cat": "관광명소", "cat2": "거리·자연", "gu": "종로구", "lon": 126.973674, "lat": 37.61323, "score": 0.1425, "stay": 30}, {"id": "18741277", "name": "서울한양도성 낙산구간2코스", "cat": "관광명소", "cat2": "거리·자연", "gu": "종로구", "lon": 127.008636, "lat": 37.580797, "score": 0.1425, "stay": 30}, {"id": "26563582", "name": "북악스카이웨이길", "cat": "관광명소", "cat2": "거리·자연", "gu": "성북구", "lon": 126.989939, "lat": 37.60335, "score": 0.1424, "stay": 30}, {"id": "26563929", "name": "서울도보관광코스 경희궁~서대문", "cat": "관광명소", "cat2": "거리·자연", "gu": "종로구", "lon": 126.965008, "lat": 37.571612, "score": 0.1338, "stay": 30}, {"id": "987290105", "name": "이어령길", "cat": "관광명소", "cat2": "거리·자연", "gu": "종로구", "lon": 126.971606, "lat": 37.612064, "score": 0.129, "stay": 30}, {"id": "424921100", "name": "서울명예도로 겸재길", "cat": "관광명소", "cat2": "거리·자연", "gu": "종로구", "lon": 126.967353, "lat": 37.583092, "score": 0.126, "stay": 30}, {"id": "19977958", "name": "창덕궁 원역처소", "cat": "관광명소", "cat2": "명소·유적", "gu": "종로구", "lon": 126.990731, "lat": 37.577885, "score": 0.126, "stay": 30}, {"id": "26563943", "name": "서울도보관광코스 창경궁", "cat": "관광명소", "cat2": "거리·자연", "gu": "종로구", "lon": 126.994512, "lat": 37.580083, "score": 0.126, "stay": 30}, {"id": "12898413", "name": "창덕궁 기오헌", "cat": "관광명소", "cat2": "명소·유적", "gu": "종로구", "lon": 126.991609, "lat": 37.581831, "score": 0.126, "stay": 30}, {"id": "26563945", "name": "서울도보관광코스 창경궁~생태코스", "cat": "관광명소", "cat2": "거리·자연", "gu": "종로구", "lon": 126.9952, "lat": 37.579442, "score": 0.126, "stay": 30}, {"id": "26563939", "name": "서울도보관광코스 성북동", "cat": "관광명소", "cat2": "거리·자연", "gu": "성북구", "lon": 126.998184, "lat": 37.594979, "score": 0.1225, "stay": 30}, {"id": "17558075", "name": "낙산공원 제1전망광장", "cat": "관광명소", "cat2": "거리·자연", "gu": "종로구", "lon": 127.007409, "lat": 37.581647, "score": 0.1085, "stay": 30}, {"id": "26563580", "name": "백사실두메나들길", "cat": "관광명소", "cat2": "거리·자연", "gu": "종로구", "lon": 126.970281, "lat": 37.600878, "score": 0.0973, "stay": 30}, {"id": "26563586", "name": "인왕산나들길", "cat": "관광명소", "cat2": "거리·자연", "gu": "종로구", "lon": 126.962124, "lat": 37.580416, "score": 0.0973, "stay": 30}, {"id": "26563583", "name": "북악하늘나들길", "cat": "관광명소", "cat2": "거리·자연", "gu": "종로구", "lon": 126.983576, "lat": 37.59603, "score": 0.0938, "stay": 30}, {"id": "26563585", "name": "인사동삼청동나들길", "cat": "관광명소", "cat2": "거리·자연", "gu": "종로구", "lon": 126.97781, "lat": 37.581195, "score": 0.086, "stay": 30}, {"id": "90988882", "name": "서울명예도로 감고당길", "cat": "관광명소", "cat2": "거리·자연", "gu": "종로구", "lon": 126.982467, "lat": 37.577556, "score": 0.0795, "stay": 30}, {"id": "327357948", "name": "서울둘레길 18코스 계곡과 산이 만난 도심길", "cat": "관광명소", "cat2": "거리·자연", "gu": "종로구", "lon": 126.961982, "lat": 37.607872, "score": 0.0795, "stay": 30}, {"id": "180943715", "name": "북악하늘길 2산책로", "cat": "관광명소", "cat2": "거리·자연", "gu": "종로구", "lon": 126.981737, "lat": 37.598585, "score": 0.0762, "stay": 30}, {"id": "26563590", "name": "정릉숲산책길", "cat": "관광명소", "cat2": "거리·자연", "gu": "성북구", "lon": 127.003184, "lat": 37.6021, "score": 0.0762, "stay": 30}, {"id": "2125519668", "name": "무계동천", "cat": "관광명소", "cat2": "거리·자연", "gu": "종로구", "lon": 126.961276, "lat": 37.59112, "score": 0.0762, "stay": 30}, {"id": "12544569", "name": "북한산둘레길 솔샘길4구간", "cat": "관광명소", "cat2": "거리·자연", "gu": "성북구", "lon": 127.00237, "lat": 37.618747, "score": 0.0701, "stay": 30}, {"id": "26563581", "name": "부암동나들길", "cat": "관광명소", "cat2": "거리·자연", "gu": "종로구", "lon": 126.961301, "lat": 37.586665, "score": 0.0701, "stay": 30}, {"id": "12544588", "name": "북한산둘레길 명상길5구간", "cat": "관광명소", "cat2": "거리·자연", "gu": "성북구", "lon": 126.989906, "lat": 37.615164, "score": 0.063, "stay": 30}, {"id": "26558561", "name": "동네골목길관광코스 14코스(창신동)", "cat": "관광명소", "cat2": "거리·자연", "gu": "종로구", "lon": 127.012439, "lat": 37.574237, "score": 0.0543, "stay": 30}, {"id": "1416816147", "name": "서울테마산책길 진경산수화길", "cat": "관광명소", "cat2": "거리·자연", "gu": "종로구", "lon": 126.968249, "lat": 37.586346, "score": 0.0543, "stay": 30}, {"id": "12558459", "name": "경복궁 연생전", "cat": "관광명소", "cat2": "명소·유적", "gu": "종로구", "lon": 126.977458, "lat": 37.579418, "score": 0.0543, "stay": 30}, {"id": "18741275", "name": "서울 한양도성 인왕산구간4코스", "cat": "관광명소", "cat2": "거리·자연", "gu": "종로구", "lon": 126.960975, "lat": 37.579136, "score": 0.0543, "stay": 30}, {"id": "1092255883", "name": "서울테마산책길 삼청공원 순환산책길", "cat": "관광명소", "cat2": "거리·자연", "gu": "종로구", "lon": 126.984021, "lat": 37.590984, "score": 0.0271, "stay": 30}, {"id": "12898506", "name": "창경궁 외행각", "cat": "관광명소", "cat2": "명소·유적", "gu": "종로구", "lon": 126.996391, "lat": 37.578844, "score": 0.0271, "stay": 30}, {"id": "26563576", "name": "탕춘대성숲나들길", "cat": "관광명소", "cat2": "거리·자연", "gu": "서대문구", "lon": 126.955603, "lat": 37.596235, "score": 0.0271, "stay": 30}, {"id": "26563927", "name": "서울도보관광코스 경복궁~효자동코스", "cat": "관광명소", "cat2": "거리·자연", "gu": "종로구", "lon": 126.976393, "lat": 37.580459, "score": 0.0, "stay": 30}, {"id": "26558534", "name": "동네골목길관광코스 1코스(청운효자동)", "cat": "관광명소", "cat2": "거리·자연", "gu": "종로구", "lon": 126.972556, "lat": 37.584311, "score": 0.0, "stay": 30}, {"id": "26558563", "name": "동네골목길관광코스 15코스(숭인동)", "cat": "관광명소", "cat2": "거리·자연", "gu": "종로구", "lon": 127.018041, "lat": 37.577667, "score": 0.0, "stay": 30}, {"id": "12544579", "name": "북한산둘레길 6구간평창마을길", "cat": "관광명소", "cat2": "거리·자연", "gu": "종로구", "lon": 126.968758, "lat": 37.612821, "score": 0.0, "stay": 30}, {"id": "26558544", "name": "동네골목길관광코스 6코스(무악동)", "cat": "관광명소", "cat2": "거리·자연", "gu": "종로구", "lon": 126.96084, "lat": 37.577154, "score": 0.0, "stay": 30}, {"id": "1758925509", "name": "해운대", "cat": "음식점", "cat2": "한식", "gu": "종로구", "lon": 126.990527, "lat": 37.572706, "score": 0.9532, "stay": 40}, {"id": "1841638678", "name": "원주", "cat": "음식점", "cat2": "술집", "gu": "종로구", "lon": 126.983868, "lat": 37.569346, "score": 0.9338, "stay": 40}, {"id": "1762556656", "name": "캐스팅", "cat": "음식점", "cat2": "술집", "gu": "종로구", "lon": 126.990695, "lat": 37.572705, "score": 0.9283, "stay": 40}, {"id": "713709762", "name": "페이스", "cat": "음식점", "cat2": "술집", "gu": "종로구", "lon": 126.990367, "lat": 37.572673, "score": 0.9252, "stay": 40}, {"id": "644130497", "name": "아지트", "cat": "음식점", "cat2": "술집", "gu": "성북구", "lon": 127.017482, "lat": 37.591693, "score": 0.9241, "stay": 40}, {"id": "2126758639", "name": "마루", "cat": "음식점", "cat2": "술집", "gu": "종로구", "lon": 126.988839, "lat": 37.572003, "score": 0.9235, "stay": 40}, {"id": "636106906", "name": "도장", "cat": "음식점", "cat2": "식당(기타)", "gu": "종로구", "lon": 126.980601, "lat": 37.567664, "score": 0.9223, "stay": 40}, {"id": "1557759897", "name": "정류장", "cat": "음식점", "cat2": "식당(기타)", "gu": "종로구", "lon": 126.971492, "lat": 37.576336, "score": 0.9199, "stay": 40}, {"id": "1394579660", "name": "랩", "cat": "음식점", "cat2": "식당(기타)", "gu": "종로구", "lon": 126.99001, "lat": 37.574218, "score": 0.9171, "stay": 40}, {"id": "21341969", "name": "장독대", "cat": "음식점", "cat2": "술집", "gu": "종로구", "lon": 126.986652, "lat": 37.569292, "score": 0.9116, "stay": 40}, {"id": "2140109558", "name": "아지트", "cat": "음식점", "cat2": "술집", "gu": "종로구", "lon": 126.98432, "lat": 37.568978, "score": 0.9103, "stay": 40}, {"id": "1302087627", "name": "아지트", "cat": "음식점", "cat2": "한식", "gu": "종로구", "lon": 126.974415, "lat": 37.57137, "score": 0.9084, "stay": 40}, {"id": "20743963", "name": "정원", "cat": "음식점", "cat2": "한식", "gu": "종로구", "lon": 126.99122, "lat": 37.571989, "score": 0.9082, "stay": 40}, {"id": "11246084", "name": "동해", "cat": "음식점", "cat2": "식당(기타)", "gu": "종로구", "lon": 126.979397, "lat": 37.567375, "score": 0.9082, "stay": 40}, {"id": "27495927", "name": "하루에", "cat": "음식점", "cat2": "한식", "gu": "종로구", "lon": 126.973249, "lat": 37.57179, "score": 0.907, "stay": 40}, {"id": "11180381", "name": "우정", "cat": "음식점", "cat2": "한식", "gu": "종로구", "lon": 126.983975, "lat": 37.575073, "score": 0.9068, "stay": 40}, {"id": "1865242929", "name": "콕", "cat": "음식점", "cat2": "한식", "gu": "종로구", "lon": 126.991391, "lat": 37.57237, "score": 0.9061, "stay": 40}, {"id": "545882526", "name": "한강", "cat": "음식점", "cat2": "식당(기타)", "gu": "종로구", "lon": 126.985509, "lat": 37.573482, "score": 0.9054, "stay": 40}, {"id": "554593974", "name": "셔터", "cat": "음식점", "cat2": "식당(기타)", "gu": "종로구", "lon": 126.989941, "lat": 37.572683, "score": 0.9041, "stay": 40}, {"id": "1037761103", "name": "메이드", "cat": "음식점", "cat2": "술집", "gu": "종로구", "lon": 126.988134, "lat": 37.573352, "score": 0.9031, "stay": 40}, {"id": "10439259", "name": "사랑채", "cat": "음식점", "cat2": "한식", "gu": "종로구", "lon": 126.984242, "lat": 37.575033, "score": 0.9026, "stay": 40}, {"id": "21408568", "name": "다락방", "cat": "음식점", "cat2": "술집", "gu": "종로구", "lon": 126.98658, "lat": 37.569664, "score": 0.9018, "stay": 40}, {"id": "337066607", "name": "환희", "cat": "음식점", "cat2": "식당(기타)", "gu": "종로구", "lon": 127.000309, "lat": 37.582901, "score": 0.9001, "stay": 40}, {"id": "355680801", "name": "테라", "cat": "음식점", "cat2": "술집", "gu": "종로구", "lon": 126.989725, "lat": 37.572663, "score": 0.9001, "stay": 40}, {"id": "27269590", "name": "호반", "cat": "음식점", "cat2": "한식", "gu": "종로구", "lon": 126.989146, "lat": 37.5733, "score": 0.898, "stay": 40}, {"id": "1941428853", "name": "간판없는가게", "cat": "음식점", "cat2": "식당(기타)", "gu": "종로구", "lon": 126.990251, "lat": 37.573794, "score": 0.8955, "stay": 40}, {"id": "429183410", "name": "벼랑", "cat": "음식점", "cat2": "한식", "gu": "종로구", "lon": 127.000036, "lat": 37.582394, "score": 0.8947, "stay": 40}, {"id": "21397067", "name": "보람", "cat": "음식점", "cat2": "식당(기타)", "gu": "종로구", "lon": 127.008484, "lat": 37.568112, "score": 0.8936, "stay": 40}, {"id": "40455750", "name": "팝콘", "cat": "음식점", "cat2": "술집", "gu": "성북구", "lon": 127.01746, "lat": 37.592041, "score": 0.8906, "stay": 40}, {"id": "145413841", "name": "북촌", "cat": "음식점", "cat2": "한식", "gu": "종로구", "lon": 126.98501, "lat": 37.575171, "score": 0.8905, "stay": 40}, {"id": "410609306", "name": "범", "cat": "음식점", "cat2": "식당(기타)", "gu": "종로구", "lon": 126.990808, "lat": 37.573461, "score": 0.8898, "stay": 40}, {"id": "21238292", "name": "정원", "cat": "음식점", "cat2": "한식", "gu": "종로구", "lon": 126.974222, "lat": 37.573644, "score": 0.8873, "stay": 40}, {"id": "11554382", "name": "호반", "cat": "음식점", "cat2": "한식", "gu": "종로구", "lon": 126.981808, "lat": 37.572383, "score": 0.8869, "stay": 40}, {"id": "184059712", "name": "마카로니", "cat": "음식점", "cat2": "술집", "gu": "종로구", "lon": 126.988932, "lat": 37.572743, "score": 0.8866, "stay": 40}, {"id": "2005451610", "name": "광경", "cat": "음식점", "cat2": "술집", "gu": "종로구", "lon": 126.973826, "lat": 37.573094, "score": 0.8854, "stay": 40}, {"id": "263386468", "name": "익선동", "cat": "음식점", "cat2": "한식", "gu": "종로구", "lon": 126.988084, "lat": 37.573667, "score": 0.884, "stay": 40}, {"id": "371045540", "name": "어시장", "cat": "음식점", "cat2": "한식", "gu": "종로구", "lon": 126.984826, "lat": 37.569627, "score": 0.8826, "stay": 40}, {"id": "27306859", "name": "정돈", "cat": "음식점", "cat2": "식당(기타)", "gu": "종로구", "lon": 127.001095, "lat": 37.581789, "score": 0.8823, "stay": 40}, {"id": "16036704", "name": "미술관", "cat": "음식점", "cat2": "술집", "gu": "종로구", "lon": 126.99726, "lat": 37.58426, "score": 0.8823, "stay": 40}, {"id": "1619274444", "name": "양연화로 종로직영점", "cat": "음식점", "cat2": "한식", "gu": "종로구", "lon": 126.986494, "lat": 37.569249, "score": 0.8821, "stay": 40}, {"id": "16738263", "name": "물레방아", "cat": "음식점", "cat2": "술집", "gu": "종로구", "lon": 126.990709, "lat": 37.573044, "score": 0.8811, "stay": 40}, {"id": "230631458", "name": "빵빵", "cat": "음식점", "cat2": "술집", "gu": "종로구", "lon": 126.990228, "lat": 37.572482, "score": 0.8804, "stay": 40}, {"id": "2111413140", "name": "락", "cat": "음식점", "cat2": "술집", "gu": "종로구", "lon": 126.989393, "lat": 37.571682, "score": 0.8789, "stay": 40}, {"id": "1997490731", "name": "플레이스", "cat": "음식점", "cat2": "술집", "gu": "종로구", "lon": 126.992019, "lat": 37.572433, "score": 0.8788, "stay": 40}, {"id": "12673531", "name": "우리집", "cat": "음식점", "cat2": "한식", "gu": "종로구", "lon": 126.986583, "lat": 37.578104, "score": 0.8788, "stay": 40}, {"id": "1495438366", "name": "익선동고기집", "cat": "음식점", "cat2": "한식", "gu": "종로구", "lon": 126.990826, "lat": 37.573376, "score": 0.8781, "stay": 40}, {"id": "9351301", "name": "원흥", "cat": "음식점", "cat2": "식당(기타)", "gu": "종로구", "lon": 126.981669, "lat": 37.567901, "score": 0.877, "stay": 40}, {"id": "191106788", "name": "진심", "cat": "음식점", "cat2": "식당(기타)", "gu": "종로구", "lon": 126.968849, "lat": 37.579841, "score": 0.8752, "stay": 40}, {"id": "10388142", "name": "베네치아", "cat": "음식점", "cat2": "식당(기타)", "gu": "종로구", "lon": 126.99142, "lat": 37.572358, "score": 0.875, "stay": 40}, {"id": "650374759", "name": "숙달돼지 종각점", "cat": "음식점", "cat2": "한식", "gu": "종로구", "lon": 126.984117, "lat": 37.569393, "score": 0.8747, "stay": 40}, {"id": "1416527003", "name": "툴", "cat": "음식점", "cat2": "식당(기타)", "gu": "종로구", "lon": 126.989315, "lat": 37.572656, "score": 0.8738, "stay": 40}, {"id": "1914943679", "name": "익선애뜻", "cat": "음식점", "cat2": "한식", "gu": "종로구", "lon": 126.990593, "lat": 37.573362, "score": 0.8731, "stay": 40}, {"id": "1750960892", "name": "양가", "cat": "음식점", "cat2": "한식", "gu": "종로구", "lon": 126.975709, "lat": 37.571059, "score": 0.873, "stay": 40}, {"id": "1806158705", "name": "고향", "cat": "음식점", "cat2": "한식", "gu": "종로구", "lon": 126.999943, "lat": 37.572555, "score": 0.8715, "stay": 40}, {"id": "14821543", "name": "종로포차", "cat": "음식점", "cat2": "술집", "gu": "종로구", "lon": 126.985206, "lat": 37.569253, "score": 0.8705, "stay": 40}, {"id": "21327011", "name": "호남선", "cat": "음식점", "cat2": "한식", "gu": "종로구", "lon": 126.990887, "lat": 37.572998, "score": 0.8681, "stay": 40}, {"id": "21232703", "name": "틈", "cat": "음식점", "cat2": "술집", "gu": "종로구", "lon": 126.996898, "lat": 37.584269, "score": 0.8677, "stay": 40}, {"id": "434989785", "name": "청기와타운 종로점", "cat": "음식점", "cat2": "한식", "gu": "종로구", "lon": 126.986332, "lat": 37.569063, "score": 0.8666, "stay": 40}, {"id": "783839483", "name": "마이너스", "cat": "음식점", "cat2": "식당(기타)", "gu": "종로구", "lon": 126.991317, "lat": 37.572043, "score": 0.8664, "stay": 40}, {"id": "939585270", "name": "참", "cat": "음식점", "cat2": "술집", "gu": "종로구", "lon": 126.970373, "lat": 37.579157, "score": 0.8657, "stay": 40}, {"id": "16042902", "name": "풍미가", "cat": "음식점", "cat2": "한식", "gu": "종로구", "lon": 126.970716, "lat": 37.575481, "score": 0.8657, "stay": 40}, {"id": "1153946290", "name": "지퍼", "cat": "음식점", "cat2": "술집", "gu": "종로구", "lon": 126.98878, "lat": 37.572086, "score": 0.8652, "stay": 40}, {"id": "16501004", "name": "화이트골드", "cat": "음식점", "cat2": "술집", "gu": "종로구", "lon": 127.008308, "lat": 37.56832, "score": 0.8647, "stay": 40}, {"id": "1787775759", "name": "육랩 종로점", "cat": "음식점", "cat2": "한식", "gu": "종로구", "lon": 126.985395, "lat": 37.56945, "score": 0.8637, "stay": 40}, {"id": "715261695", "name": "달랭이", "cat": "음식점", "cat2": "한식", "gu": "종로구", "lon": 126.990695, "lat": 37.573547, "score": 0.8631, "stay": 40}, {"id": "213117891", "name": "토리고야 종로본점", "cat": "음식점", "cat2": "술집", "gu": "종로구", "lon": 126.985075, "lat": 37.569507, "score": 0.8629, "stay": 40}, {"id": "8408219", "name": "브릭", "cat": "음식점", "cat2": "술집", "gu": "종로구", "lon": 126.980486, "lat": 37.572018, "score": 0.8619, "stay": 40}, {"id": "1056717239", "name": "이슈", "cat": "음식점", "cat2": "술집", "gu": "종로구", "lon": 126.98922, "lat": 37.570871, "score": 0.8617, "stay": 40}, {"id": "1201919846", "name": "충당", "cat": "음식점", "cat2": "식당(기타)", "gu": "성북구", "lon": 127.01891, "lat": 37.592096, "score": 0.8614, "stay": 40}, {"id": "959665746", "name": "쓰리", "cat": "음식점", "cat2": "술집", "gu": "성북구", "lon": 127.017131, "lat": 37.591179, "score": 0.8613, "stay": 40}, {"id": "15522678", "name": "마리오", "cat": "음식점", "cat2": "식당(기타)", "gu": "종로구", "lon": 126.999688, "lat": 37.582437, "score": 0.8606, "stay": 40}, {"id": "12058623", "name": "옥정", "cat": "음식점", "cat2": "한식", "gu": "종로구", "lon": 126.985066, "lat": 37.574817, "score": 0.8604, "stay": 40}, {"id": "1868919137", "name": "봄에", "cat": "음식점", "cat2": "술집", "gu": "종로구", "lon": 126.974123, "lat": 37.572455, "score": 0.86, "stay": 40}, {"id": "19790455", "name": "도성", "cat": "음식점", "cat2": "식당(기타)", "gu": "종로구", "lon": 126.970783, "lat": 37.578451, "score": 0.8597, "stay": 40}, {"id": "8295189", "name": "명가", "cat": "음식점", "cat2": "한식", "gu": "종로구", "lon": 126.973025, "lat": 37.576711, "score": 0.859, "stay": 40}, {"id": "29774127", "name": "루트", "cat": "음식점", "cat2": "술집", "gu": "종로구", "lon": 126.991179, "lat": 37.571315, "score": 0.8589, "stay": 40}, {"id": "1486331202", "name": "고깃집", "cat": "음식점", "cat2": "한식", "gu": "종로구", "lon": 127.012061, "lat": 37.572797, "score": 0.8575, "stay": 40}, {"id": "11958231", "name": "지혜", "cat": "음식점", "cat2": "한식", "gu": "종로구", "lon": 126.970535, "lat": 37.575531, "score": 0.8575, "stay": 40}, {"id": "25115782", "name": "사랑방", "cat": "음식점", "cat2": "한식", "gu": "종로구", "lon": 126.990663, "lat": 37.571477, "score": 0.857, "stay": 40}, {"id": "1463890364", "name": "포동", "cat": "음식점", "cat2": "식당(기타)", "gu": "종로구", "lon": 126.974293, "lat": 37.572022, "score": 0.8556, "stay": 40}, {"id": "1042765594", "name": "화산", "cat": "음식점", "cat2": "술집", "gu": "종로구", "lon": 126.972002, "lat": 37.577313, "score": 0.8554, "stay": 40}, {"id": "20439014", "name": "우리집", "cat": "음식점", "cat2": "식당(기타)", "gu": "종로구", "lon": 126.968254, "lat": 37.580612, "score": 0.8554, "stay": 40}, {"id": "2118005592", "name": "비", "cat": "음식점", "cat2": "술집", "gu": "종로구", "lon": 126.971143, "lat": 37.57786, "score": 0.8554, "stay": 40}, {"id": "588632465", "name": "장원", "cat": "음식점", "cat2": "한식", "gu": "종로구", "lon": 126.99127, "lat": 37.572781, "score": 0.8551, "stay": 40}, {"id": "1237148693", "name": "별관", "cat": "음식점", "cat2": "술집", "gu": "성북구", "lon": 127.018955, "lat": 37.592273, "score": 0.8548, "stay": 40}, {"id": "567559033", "name": "종로술집", "cat": "음식점", "cat2": "술집", "gu": "종로구", "lon": 126.991932, "lat": 37.57278, "score": 0.8542, "stay": 40}, {"id": "835373645", "name": "빠리가옥", "cat": "음식점", "cat2": "식당(기타)", "gu": "종로구", "lon": 126.990251, "lat": 37.573287, "score": 0.854, "stay": 40}, {"id": "1500573351", "name": "익선취향", "cat": "음식점", "cat2": "식당(기타)", "gu": "종로구", "lon": 126.989599, "lat": 37.573592, "score": 0.8538, "stay": 40}, {"id": "8727564", "name": "가회", "cat": "음식점", "cat2": "한식", "gu": "종로구", "lon": 126.984555, "lat": 37.574684, "score": 0.8538, "stay": 40}, {"id": "20494424", "name": "소풍", "cat": "음식점", "cat2": "식당(기타)", "gu": "종로구", "lon": 126.989348, "lat": 37.569601, "score": 0.8521, "stay": 40}, {"id": "424621218", "name": "장인닭갈비 대학로점", "cat": "음식점", "cat2": "한식", "gu": "종로구", "lon": 127.000185, "lat": 37.583155, "score": 0.852, "stay": 40}, {"id": "15716957", "name": "메밀향그집", "cat": "음식점", "cat2": "한식", "gu": "종로구", "lon": 127.000668, "lat": 37.582368, "score": 0.8519, "stay": 40}, {"id": "593874530", "name": "봉심식당", "cat": "음식점", "cat2": "식당(기타)", "gu": "종로구", "lon": 127.000232, "lat": 37.58247, "score": 0.8519, "stay": 40}, {"id": "8107797", "name": "토마토", "cat": "음식점", "cat2": "식당(기타)", "gu": "종로구", "lon": 127.007059, "lat": 37.57148, "score": 0.851, "stay": 40}, {"id": "1343212448", "name": "친구들", "cat": "음식점", "cat2": "술집", "gu": "종로구", "lon": 126.971719, "lat": 37.579648, "score": 0.851, "stay": 40}, {"id": "513249912", "name": "코스모스", "cat": "음식점", "cat2": "술집", "gu": "종로구", "lon": 126.988545, "lat": 37.573281, "score": 0.8505, "stay": 40}, {"id": "15864091", "name": "종로양꼬치", "cat": "음식점", "cat2": "식당(기타)", "gu": "종로구", "lon": 126.986439, "lat": 37.569296, "score": 0.8497, "stay": 40}, {"id": "12990437", "name": "찬양집", "cat": "음식점", "cat2": "한식", "gu": "종로구", "lon": 126.990254, "lat": 37.572826, "score": 0.8495, "stay": 40}, {"id": "753537535", "name": "초이다이닝 혜화대학로점", "cat": "음식점", "cat2": "식당(기타)", "gu": "종로구", "lon": 127.00086, "lat": 37.582377, "score": 0.8494, "stay": 40}, {"id": "21233627", "name": "럭셔리", "cat": "음식점", "cat2": "술집", "gu": "종로구", "lon": 127.006466, "lat": 37.571336, "score": 0.8492, "stay": 40}, {"id": "12447485", "name": "와", "cat": "음식점", "cat2": "술집", "gu": "종로구", "lon": 126.986292, "lat": 37.572029, "score": 0.8487, "stay": 40}, {"id": "1616941791", "name": "오마카세 오사이초밥 광화문점", "cat": "음식점", "cat2": "식당(기타)", "gu": "종로구", "lon": 126.979923, "lat": 37.570845, "score": 0.8484, "stay": 40}, {"id": "1583518350", "name": "익선정육", "cat": "음식점", "cat2": "한식", "gu": "종로구", "lon": 126.990537, "lat": 37.57288, "score": 0.8481, "stay": 40}, {"id": "10004937", "name": "21세기", "cat": "음식점", "cat2": "술집", "gu": "종로구", "lon": 126.989545, "lat": 37.571077, "score": 0.8476, "stay": 40}, {"id": "18755777", "name": "순희네빈대떡", "cat": "음식점", "cat2": "한식", "gu": "종로구", "lon": 127.000724, "lat": 37.570601, "score": 0.8475, "stay": 40}, {"id": "8229628", "name": "광주집", "cat": "음식점", "cat2": "한식", "gu": "종로구", "lon": 126.990858, "lat": 37.573001, "score": 0.8474, "stay": 40}, {"id": "2053098478", "name": "샤오바오우육면 종로본점", "cat": "음식점", "cat2": "식당(기타)", "gu": "종로구", "lon": 126.98662, "lat": 37.569078, "score": 0.8472, "stay": 40}, {"id": "669701167", "name": "항아리", "cat": "음식점", "cat2": "한식", "gu": "성북구", "lon": 127.008593, "lat": 37.608947, "score": 0.8471, "stay": 40}, {"id": "839834408", "name": "닥터로빈 광화문점", "cat": "음식점", "cat2": "식당(기타)", "gu": "종로구", "lon": 126.979045, "lat": 37.571302, "score": 0.8464, "stay": 40}, {"id": "1154446565", "name": "온기", "cat": "음식점", "cat2": "식당(기타)", "gu": "성북구", "lon": 127.019792, "lat": 37.591683, "score": 0.8464, "stay": 40}, {"id": "1413307726", "name": "난다", "cat": "음식점", "cat2": "술집", "gu": "중구", "lon": 127.019526, "lat": 37.567482, "score": 0.8464, "stay": 40}, {"id": "16734831", "name": "오죽이네", "cat": "음식점", "cat2": "한식", "gu": "종로구", "lon": 126.990804, "lat": 37.573758, "score": 0.8459, "stay": 40}, {"id": "1858446927", "name": "모토이시 종각점", "cat": "음식점", "cat2": "식당(기타)", "gu": "종로구", "lon": 126.985064, "lat": 37.569243, "score": 0.8451, "stay": 40}, {"id": "1216703227", "name": "쉼", "cat": "음식점", "cat2": "한식", "gu": "종로구", "lon": 126.970099, "lat": 37.576527, "score": 0.8446, "stay": 40}, {"id": "980858085", "name": "초록초록", "cat": "음식점", "cat2": "식당(기타)", "gu": "종로구", "lon": 126.973126, "lat": 37.573773, "score": 0.8445, "stay": 40}, {"id": "1092827830", "name": "반기다", "cat": "음식점", "cat2": "한식", "gu": "종로구", "lon": 126.989289, "lat": 37.573673, "score": 0.844, "stay": 40}, {"id": "520929630", "name": "본점", "cat": "음식점", "cat2": "술집", "gu": "성북구", "lon": 127.008322, "lat": 37.58745, "score": 0.844, "stay": 40}, {"id": "1302070937", "name": "종로육가", "cat": "음식점", "cat2": "한식", "gu": "종로구", "lon": 126.990604, "lat": 37.572772, "score": 0.8439, "stay": 40}, {"id": "294320689", "name": "고기하다", "cat": "음식점", "cat2": "한식", "gu": "종로구", "lon": 127.001346, "lat": 37.582961, "score": 0.8436, "stay": 40}, {"id": "8850738", "name": "누리", "cat": "음식점", "cat2": "한식", "gu": "종로구", "lon": 126.98522, "lat": 37.575033, "score": 0.843, "stay": 40}, {"id": "21332445", "name": "깔리", "cat": "음식점", "cat2": "식당(기타)", "gu": "종로구", "lon": 126.999266, "lat": 37.582476, "score": 0.8427, "stay": 40}, {"id": "836120352", "name": "무한리필", "cat": "음식점", "cat2": "한식", "gu": "성북구", "lon": 127.009285, "lat": 37.608782, "score": 0.8426, "stay": 40}, {"id": "27509265", "name": "주주", "cat": "음식점", "cat2": "술집", "gu": "종로구", "lon": 126.968967, "lat": 37.58049, "score": 0.8424, "stay": 40}, {"id": "14549367", "name": "피맛골", "cat": "음식점", "cat2": "한식", "gu": "종로구", "lon": 126.990242, "lat": 37.570817, "score": 0.8421, "stay": 40}, {"id": "408777761", "name": "곧은", "cat": "음식점", "cat2": "한식", "gu": "종로구", "lon": 126.984631, "lat": 37.569089, "score": 0.842, "stay": 40}, {"id": "18685491", "name": "메모리", "cat": "음식점", "cat2": "술집", "gu": "종로구", "lon": 126.990606, "lat": 37.571729, "score": 0.8417, "stay": 40}, {"id": "1721241331", "name": "서촌", "cat": "음식점", "cat2": "술집", "gu": "종로구", "lon": 126.97065, "lat": 37.580898, "score": 0.8416, "stay": 40}, {"id": "906448619", "name": "백소정 성신여대점", "cat": "음식점", "cat2": "식당(기타)", "gu": "성북구", "lon": 127.018356, "lat": 37.591217, "score": 0.8415, "stay": 40}, {"id": "1167226072", "name": "에일당", "cat": "음식점", "cat2": "술집", "gu": "종로구", "lon": 126.990086, "lat": 37.573515, "score": 0.8412, "stay": 40}, {"id": "26980270", "name": "소담", "cat": "음식점", "cat2": "한식", "gu": "종로구", "lon": 126.980747, "lat": 37.572027, "score": 0.8411, "stay": 40}, {"id": "1026202848", "name": "진주육회", "cat": "음식점", "cat2": "한식", "gu": "종로구", "lon": 127.001208, "lat": 37.570498, "score": 0.8408, "stay": 40}, {"id": "1666339987", "name": "아쿠아", "cat": "음식점", "cat2": "술집", "gu": "종로구", "lon": 126.990319, "lat": 37.571296, "score": 0.84, "stay": 40}, {"id": "1630025708", "name": "주류충전소", "cat": "음식점", "cat2": "술집", "gu": "성북구", "lon": 127.017635, "lat": 37.591743, "score": 0.8396, "stay": 40}, {"id": "1695561303", "name": "제야", "cat": "음식점", "cat2": "술집", "gu": "종로구", "lon": 126.984059, "lat": 37.569642, "score": 0.8393, "stay": 40}, {"id": "1457336707", "name": "다온", "cat": "음식점", "cat2": "한식", "gu": "종로구", "lon": 126.974436, "lat": 37.570984, "score": 0.8392, "stay": 40}, {"id": "685418435", "name": "주관", "cat": "음식점", "cat2": "술집", "gu": "종로구", "lon": 127.023695, "lat": 37.569849, "score": 0.8391, "stay": 40}, {"id": "1911648225", "name": "광화문스시", "cat": "음식점", "cat2": "식당(기타)", "gu": "종로구", "lon": 126.974298, "lat": 37.572004, "score": 0.839, "stay": 40}, {"id": "1317368114", "name": "정글", "cat": "음식점", "cat2": "술집", "gu": "종로구", "lon": 126.990197, "lat": 37.574214, "score": 0.8385, "stay": 40}, {"id": "423978426", "name": "수아당", "cat": "음식점", "cat2": "식당(기타)", "gu": "성북구", "lon": 127.018022, "lat": 37.593071, "score": 0.8385, "stay": 40}, {"id": "1195245916", "name": "청화우육도삭면", "cat": "음식점", "cat2": "식당(기타)", "gu": "종로구", "lon": 126.979851, "lat": 37.57083, "score": 0.8374, "stay": 40}, {"id": "417738868", "name": "스탠딩", "cat": "음식점", "cat2": "술집", "gu": "종로구", "lon": 126.982593, "lat": 37.571941, "score": 0.8373, "stay": 40}, {"id": "67327276", "name": "담솥 익선직영점", "cat": "음식점", "cat2": "한식", "gu": "종로구", "lon": 126.989715, "lat": 37.572972, "score": 0.8372, "stay": 40}, {"id": "269601424", "name": "산적", "cat": "음식점", "cat2": "식당(기타)", "gu": "종로구", "lon": 126.991217, "lat": 37.572387, "score": 0.8371, "stay": 40}, {"id": "1838598036", "name": "소문", "cat": "음식점", "cat2": "한식", "gu": "종로구", "lon": 127.008784, "lat": 37.568893, "score": 0.8366, "stay": 40}, {"id": "2078910428", "name": "익선잡방", "cat": "음식점", "cat2": "식당(기타)", "gu": "종로구", "lon": 126.98945, "lat": 37.573379, "score": 0.8364, "stay": 40}, {"id": "1642142231", "name": "방이옥 종로관철점", "cat": "음식점", "cat2": "한식", "gu": "종로구", "lon": 126.984774, "lat": 37.569434, "score": 0.8362, "stay": 40}, {"id": "13322158", "name": "이리오너라", "cat": "음식점", "cat2": "술집", "gu": "종로구", "lon": 126.986064, "lat": 37.569062, "score": 0.8361, "stay": 40}, {"id": "566695921", "name": "솔솥 대학로점", "cat": "음식점", "cat2": "한식", "gu": "종로구", "lon": 127.000531, "lat": 37.582385, "score": 0.8359, "stay": 40}, {"id": "1157052920", "name": "정미소", "cat": "음식점", "cat2": "식당(기타)", "gu": "종로구", "lon": 126.975176, "lat": 37.571514, "score": 0.8354, "stay": 40}, {"id": "1343835370", "name": "사랑채", "cat": "음식점", "cat2": "한식", "gu": "종로구", "lon": 126.989414, "lat": 37.568702, "score": 0.8346, "stay": 40}, {"id": "1604672522", "name": "손정보쌈 종로점", "cat": "음식점", "cat2": "한식", "gu": "종로구", "lon": 126.986179, "lat": 37.568929, "score": 0.8335, "stay": 40}, {"id": "1681414321", "name": "평화", "cat": "음식점", "cat2": "술집", "gu": "성북구", "lon": 127.01918, "lat": 37.589403, "score": 0.8333, "stay": 40}, {"id": "1021367507", "name": "문화제빵", "cat": "음식점", "cat2": "식당(기타)", "gu": "종로구", "lon": 126.990882, "lat": 37.574275, "score": 0.8331, "stay": 40}, {"id": "7937472", "name": "서린낙지", "cat": "음식점", "cat2": "한식", "gu": "종로구", "lon": 126.980141, "lat": 37.570596, "score": 0.8329, "stay": 40}, {"id": "1383839977", "name": "진대감 종로점", "cat": "음식점", "cat2": "한식", "gu": "종로구", "lon": 126.986185, "lat": 37.569069, "score": 0.8323, "stay": 40}, {"id": "467516178", "name": "산전", "cat": "음식점", "cat2": "술집", "gu": "중구", "lon": 127.019522, "lat": 37.566997, "score": 0.8322, "stay": 40}, {"id": "641899943", "name": "부뚜막", "cat": "음식점", "cat2": "한식", "gu": "종로구", "lon": 126.981507, "lat": 37.572564, "score": 0.8321, "stay": 40}, {"id": "1008497143", "name": "치치 성신여대점", "cat": "음식점", "cat2": "술집", "gu": "성북구", "lon": 127.017568, "lat": 37.590962, "score": 0.8314, "stay": 40}, {"id": "497931179", "name": "혜화도담", "cat": "음식점", "cat2": "한식", "gu": "종로구", "lon": 127.000435, "lat": 37.583024, "score": 0.8308, "stay": 40}, {"id": "331946767", "name": "오아시스", "cat": "음식점", "cat2": "식당(기타)", "gu": "종로구", "lon": 126.990874, "lat": 37.571816, "score": 0.8304, "stay": 40}, {"id": "1839816522", "name": "김밥맛집", "cat": "음식점", "cat2": "식당(기타)", "gu": "종로구", "lon": 126.999751, "lat": 37.582116, "score": 0.8295, "stay": 40}, {"id": "14499993", "name": "혜화양육관", "cat": "음식점", "cat2": "식당(기타)", "gu": "종로구", "lon": 127.000802, "lat": 37.582563, "score": 0.8294, "stay": 40}, {"id": "1134840393", "name": "동경산책 성신여대점", "cat": "음식점", "cat2": "식당(기타)", "gu": "성북구", "lon": 127.017913, "lat": 37.590845, "score": 0.8291, "stay": 40}, {"id": "984317343", "name": "고기꾼 김춘배 종로직영점", "cat": "음식점", "cat2": "한식", "gu": "종로구", "lon": 126.986485, "lat": 37.569051, "score": 0.8291, "stay": 40}, {"id": "10054771", "name": "향연", "cat": "음식점", "cat2": "한식", "gu": "종로구", "lon": 126.97063, "lat": 37.575351, "score": 0.829, "stay": 40}, {"id": "1455123193", "name": "삼층", "cat": "음식점", "cat2": "술집", "gu": "종로구", "lon": 126.989093, "lat": 37.572113, "score": 0.8284, "stay": 40}, {"id": "20616390", "name": "쉬는시간", "cat": "음식점", "cat2": "식당(기타)", "gu": "종로구", "lon": 126.969569, "lat": 37.579687, "score": 0.8281, "stay": 40}, {"id": "1050859747", "name": "대나무숙성회관 종각점", "cat": "음식점", "cat2": "한식", "gu": "종로구", "lon": 126.984569, "lat": 37.569301, "score": 0.8279, "stay": 40}, {"id": "21326655", "name": "광화문미진 본점", "cat": "음식점", "cat2": "한식", "gu": "종로구", "lon": 126.979923, "lat": 37.570845, "score": 0.8277, "stay": 40}, {"id": "2084967355", "name": "돈암돈집", "cat": "음식점", "cat2": "한식", "gu": "성북구", "lon": 127.017501, "lat": 37.591907, "score": 0.8273, "stay": 40}, {"id": "1974768669", "name": "마라공방", "cat": "음식점", "cat2": "식당(기타)", "gu": "종로구", "lon": 126.979923, "lat": 37.570845, "score": 0.8268, "stay": 40}, {"id": "1157109834", "name": "술패도니", "cat": "음식점", "cat2": "식당(기타)", "gu": "종로구", "lon": 126.984564, "lat": 37.569477, "score": 0.8267, "stay": 40}, {"id": "1387447731", "name": "구옥", "cat": "음식점", "cat2": "한식", "gu": "종로구", "lon": 126.983879, "lat": 37.57515, "score": 0.8264, "stay": 40}, {"id": "881050221", "name": "삼선", "cat": "음식점", "cat2": "식당(기타)", "gu": "성북구", "lon": 127.008288, "lat": 37.587547, "score": 0.8264, "stay": 40}, {"id": "9295511", "name": "우리만두", "cat": "음식점", "cat2": "식당(기타)", "gu": "중구", "lon": 127.019845, "lat": 37.567151, "score": 0.826, "stay": 40}, {"id": "914668272", "name": "열기", "cat": "음식점", "cat2": "한식", "gu": "중구", "lon": 127.018947, "lat": 37.566086, "score": 0.8259, "stay": 40}, {"id": "1755515956", "name": "태조감자국", "cat": "음식점", "cat2": "한식", "gu": "성북구", "lon": 127.017682, "lat": 37.590789, "score": 0.8258, "stay": 40}, {"id": "119820827", "name": "플러스84", "cat": "음식점", "cat2": "식당(기타)", "gu": "종로구", "lon": 126.984242, "lat": 37.575015, "score": 0.8258, "stay": 40}, {"id": "1015214721", "name": "빠삭족발", "cat": "음식점", "cat2": "식당(기타)", "gu": "종로구", "lon": 126.989264, "lat": 37.573351, "score": 0.8255, "stay": 40}, {"id": "878728829", "name": "도마", "cat": "음식점", "cat2": "한식", "gu": "종로구", "lon": 126.988445, "lat": 37.56873, "score": 0.8252, "stay": 40}, {"id": "1165642981", "name": "이경문순대곱창", "cat": "음식점", "cat2": "한식", "gu": "종로구", "lon": 126.990838, "lat": 37.573083, "score": 0.8249, "stay": 40}, {"id": "1243800728", "name": "멘야하나비 성신여대점", "cat": "음식점", "cat2": "식당(기타)", "gu": "성북구", "lon": 127.018569, "lat": 37.591449, "score": 0.8246, "stay": 40}, {"id": "11020585", "name": "낙동강", "cat": "음식점", "cat2": "한식", "gu": "종로구", "lon": 126.97985, "lat": 37.567617, "score": 0.8237, "stay": 40}, {"id": "11657961", "name": "한도", "cat": "음식점", "cat2": "한식", "gu": "종로구", "lon": 126.990845, "lat": 37.569285, "score": 0.8236, "stay": 40}, {"id": "1993931194", "name": "뼈탄집", "cat": "음식점", "cat2": "한식", "gu": "종로구", "lon": 126.971665, "lat": 37.576418, "score": 0.8232, "stay": 40}, {"id": "15481827", "name": "미래", "cat": "음식점", "cat2": "한식", "gu": "종로구", "lon": 127.0081, "lat": 37.57081, "score": 0.8231, "stay": 40}, {"id": "1194074731", "name": "오이지", "cat": "음식점", "cat2": "한식", "gu": "종로구", "lon": 127.000181, "lat": 37.581846, "score": 0.8228, "stay": 40}, {"id": "439177229", "name": "종로도담", "cat": "음식점", "cat2": "한식", "gu": "종로구", "lon": 126.981409, "lat": 37.572054, "score": 0.8228, "stay": 40}, {"id": "1599567374", "name": "아트몬스터 익선동점", "cat": "음식점", "cat2": "술집", "gu": "종로구", "lon": 126.990455, "lat": 37.573607, "score": 0.8225, "stay": 40}, {"id": "483117658", "name": "코코스", "cat": "음식점", "cat2": "술집", "gu": "성북구", "lon": 127.017097, "lat": 37.591763, "score": 0.8224, "stay": 40}, {"id": "192029925", "name": "동방", "cat": "음식점", "cat2": "식당(기타)", "gu": "성북구", "lon": 127.018671, "lat": 37.589854, "score": 0.822, "stay": 40}, {"id": "1770240772", "name": "해피니스 대학로점", "cat": "음식점", "cat2": "식당(기타)", "gu": "종로구", "lon": 126.99969, "lat": 37.582436, "score": 0.822, "stay": 40}, {"id": "243945296", "name": "청화원", "cat": "음식점", "cat2": "식당(기타)", "gu": "종로구", "lon": 126.999548, "lat": 37.583122, "score": 0.8218, "stay": 40}, {"id": "15442539", "name": "플레이그라운드", "cat": "음식점", "cat2": "술집", "gu": "종로구", "lon": 127.000041, "lat": 37.582394, "score": 0.821, "stay": 40}, {"id": "1870342026", "name": "광화문 고기집", "cat": "음식점", "cat2": "한식", "gu": "종로구", "lon": 126.973815, "lat": 37.573075, "score": 0.8208, "stay": 40}, {"id": "664328754", "name": "스터드", "cat": "음식점", "cat2": "술집", "gu": "종로구", "lon": 126.989943, "lat": 37.572684, "score": 0.8195, "stay": 40}, {"id": "1682456070", "name": "리치몬드", "cat": "음식점", "cat2": "식당(기타)", "gu": "종로구", "lon": 126.990353, "lat": 37.573327, "score": 0.8193, "stay": 40}, {"id": "804973117", "name": "두드림", "cat": "음식점", "cat2": "한식", "gu": "종로구", "lon": 126.970759, "lat": 37.576333, "score": 0.8184, "stay": 40}, {"id": "601712298", "name": "나르", "cat": "음식점", "cat2": "술집", "gu": "종로구", "lon": 127.000649, "lat": 37.582694, "score": 0.8184, "stay": 40}, {"id": "15204021", "name": "갓덴스시 종로점", "cat": "음식점", "cat2": "식당(기타)", "gu": "종로구", "lon": 126.985605, "lat": 37.569472, "score": 0.8182, "stay": 40}, {"id": "834962251", "name": "골드바", "cat": "음식점", "cat2": "술집", "gu": "성북구", "lon": 127.017284, "lat": 37.591228, "score": 0.8181, "stay": 40}, {"id": "922170911", "name": "청화우육도삭면", "cat": "음식점", "cat2": "식당(기타)", "gu": "종로구", "lon": 126.999565, "lat": 37.583122, "score": 0.818, "stay": 40}, {"id": "1881718398", "name": "단상", "cat": "음식점", "cat2": "한식", "gu": "종로구", "lon": 126.986415, "lat": 37.577956, "score": 0.8177, "stay": 40}, {"id": "336754481", "name": "종삼육", "cat": "음식점", "cat2": "한식", "gu": "종로구", "lon": 126.990961, "lat": 37.572777, "score": 0.8175, "stay": 40}, {"id": "11593474", "name": "시골집", "cat": "음식점", "cat2": "한식", "gu": "종로구", "lon": 127.011347, "lat": 37.571448, "score": 0.8173, "stay": 40}, {"id": "9496658", "name": "테라스", "cat": "음식점", "cat2": "술집", "gu": "종로구", "lon": 127.003981, "lat": 37.570515, "score": 0.8172, "stay": 40}, {"id": "8188652", "name": "고향집", "cat": "음식점", "cat2": "한식", "gu": "종로구", "lon": 126.988411, "lat": 37.572372, "score": 0.817, "stay": 40}, {"id": "12960503", "name": "비바", "cat": "음식점", "cat2": "술집", "gu": "종로구", "lon": 126.990704, "lat": 37.570615, "score": 0.8167, "stay": 40}, {"id": "944606076", "name": "오롯이", "cat": "음식점", "cat2": "식당(기타)", "gu": "성북구", "lon": 127.020177, "lat": 37.591467, "score": 0.8167, "stay": 40}, {"id": "27495320", "name": "모두와", "cat": "음식점", "cat2": "식당(기타)", "gu": "성북구", "lon": 127.018377, "lat": 37.592044, "score": 0.8166, "stay": 40}, {"id": "21330843", "name": "윌", "cat": "음식점", "cat2": "술집", "gu": "종로구", "lon": 127.001012, "lat": 37.583122, "score": 0.8162, "stay": 40}, {"id": "890536023", "name": "샤브옥", "cat": "음식점", "cat2": "식당(기타)", "gu": "성북구", "lon": 127.016865, "lat": 37.591535, "score": 0.8156, "stay": 40}, {"id": "1091091414", "name": "회포", "cat": "음식점", "cat2": "한식", "gu": "종로구", "lon": 126.975029, "lat": 37.571101, "score": 0.8155, "stay": 40}, {"id": "1852395627", "name": "죠죠 대학로점", "cat": "음식점", "cat2": "식당(기타)", "gu": "종로구", "lon": 127.000134, "lat": 37.582867, "score": 0.8151, "stay": 40}, {"id": "438012774", "name": "박가네", "cat": "음식점", "cat2": "식당(기타)", "gu": "종로구", "lon": 127.005176, "lat": 37.570437, "score": 0.815, "stay": 40}, {"id": "595360979", "name": "쿄코코 대학로점", "cat": "음식점", "cat2": "식당(기타)", "gu": "종로구", "lon": 127.000442, "lat": 37.582585, "score": 0.8147, "stay": 40}, {"id": "230989806", "name": "벤베누토", "cat": "음식점", "cat2": "식당(기타)", "gu": "성북구", "lon": 127.018528, "lat": 37.592796, "score": 0.8144, "stay": 40}, {"id": "1261126582", "name": "89번가 1호점", "cat": "음식점", "cat2": "한식", "gu": "성북구", "lon": 127.01763, "lat": 37.591737, "score": 0.8142, "stay": 40}, {"id": "20743443", "name": "신승관", "cat": "음식점", "cat2": "식당(기타)", "gu": "종로구", "lon": 126.979753, "lat": 37.570775, "score": 0.8141, "stay": 40}, {"id": "1687046067", "name": "편안한공간", "cat": "음식점", "cat2": "술집", "gu": "종로구", "lon": 126.998238, "lat": 37.582963, "score": 0.814, "stay": 40}, {"id": "521302610", "name": "혜화곱창", "cat": "음식점", "cat2": "한식", "gu": "종로구", "lon": 127.000648, "lat": 37.5827, "score": 0.814, "stay": 40}, {"id": "184605732", "name": "익선동야장", "cat": "음식점", "cat2": "술집", "gu": "종로구", "lon": 126.989572, "lat": 37.572389, "score": 0.8139, "stay": 40}, {"id": "26792792", "name": "촌놈", "cat": "음식점", "cat2": "한식", "gu": "종로구", "lon": 127.002344, "lat": 37.582885, "score": 0.8138, "stay": 40}, {"id": "2014446124", "name": "안동네", "cat": "음식점", "cat2": "한식", "gu": "종로구", "lon": 126.985511, "lat": 37.569011, "score": 0.8137, "stay": 40}, {"id": "2085616560", "name": "글러브", "cat": "음식점", "cat2": "술집", "gu": "종로구", "lon": 126.989955, "lat": 37.572685, "score": 0.8136, "stay": 40}, {"id": "17278908", "name": "종로불돼지", "cat": "음식점", "cat2": "한식", "gu": "종로구", "lon": 126.985099, "lat": 37.568842, "score": 0.8135, "stay": 40}, {"id": "8051186", "name": "일품당 광화문점", "cat": "음식점", "cat2": "식당(기타)", "gu": "종로구", "lon": 126.975056, "lat": 37.57151, "score": 0.8135, "stay": 40}, {"id": "1666637365", "name": "개나리아구찜 종로", "cat": "음식점", "cat2": "한식", "gu": "종로구", "lon": 126.986757, "lat": 37.569099, "score": 0.8135, "stay": 40}, {"id": "15771767", "name": "무교동낙지", "cat": "음식점", "cat2": "한식", "gu": "종로구", "lon": 126.979456, "lat": 37.571646, "score": 0.8134, "stay": 40}, {"id": "16875421", "name": "석정", "cat": "음식점", "cat2": "한식", "gu": "종로구", "lon": 126.973444, "lat": 37.57177, "score": 0.8133, "stay": 40}, {"id": "767944221", "name": "타마린드 디타워점", "cat": "음식점", "cat2": "식당(기타)", "gu": "종로구", "lon": 126.978911, "lat": 37.570996, "score": 0.8131, "stay": 40}, {"id": "589319167", "name": "시골집", "cat": "음식점", "cat2": "한식", "gu": "종로구", "lon": 127.01209, "lat": 37.572907, "score": 0.8131, "stay": 40}, {"id": "1003876557", "name": "제이", "cat": "음식점", "cat2": "한식", "gu": "종로구", "lon": 126.98324, "lat": 37.570214, "score": 0.8129, "stay": 40}, {"id": "23579179", "name": "야후", "cat": "음식점", "cat2": "한식", "gu": "종로구", "lon": 126.988712, "lat": 37.572915, "score": 0.8127, "stay": 40}, {"id": "1497027837", "name": "익선반주", "cat": "음식점", "cat2": "식당(기타)", "gu": "종로구", "lon": 126.990287, "lat": 37.573675, "score": 0.8123, "stay": 40}, {"id": "698789524", "name": "메종아카이", "cat": "음식점", "cat2": "식당(기타)", "gu": "종로구", "lon": 126.999664, "lat": 37.583186, "score": 0.812, "stay": 40}, {"id": "1210807868", "name": "쟁반집", "cat": "음식점", "cat2": "한식", "gu": "종로구", "lon": 127.006235, "lat": 37.570252, "score": 0.812, "stay": 40}, {"id": "1205829450", "name": "육미안 혜화점", "cat": "음식점", "cat2": "한식", "gu": "종로구", "lon": 126.999445, "lat": 37.583251, "score": 0.8119, "stay": 40}, {"id": "24202409", "name": "의정부부대찌개", "cat": "음식점", "cat2": "한식", "gu": "종로구", "lon": 126.985914, "lat": 37.568953, "score": 0.8114, "stay": 40}, {"id": "1517901535", "name": "일시정지", "cat": "음식점", "cat2": "술집", "gu": "성북구", "lon": 127.017604, "lat": 37.591308, "score": 0.8114, "stay": 40}, {"id": "18283622", "name": "르브와 종로점", "cat": "음식점", "cat2": "식당(기타)", "gu": "종로구", "lon": 126.985398, "lat": 37.569447, "score": 0.8113, "stay": 40}, {"id": "10458988", "name": "사랑방", "cat": "음식점", "cat2": "한식", "gu": "종로구", "lon": 126.971113, "lat": 37.575132, "score": 0.8113, "stay": 40}, {"id": "741016129", "name": "법원", "cat": "음식점", "cat2": "술집", "gu": "종로구", "lon": 126.987366, "lat": 37.579268, "score": 0.811, "stay": 40}, {"id": "797112475", "name": "야수", "cat": "음식점", "cat2": "술집", "gu": "종로구", "lon": 126.988684, "lat": 37.572225, "score": 0.811, "stay": 40}, {"id": "405735391", "name": "대륙", "cat": "음식점", "cat2": "식당(기타)", "gu": "종로구", "lon": 126.991542, "lat": 37.57068, "score": 0.8106, "stay": 40}, {"id": "1616846790", "name": "이치규 광화문점", "cat": "음식점", "cat2": "식당(기타)", "gu": "종로구", "lon": 126.979817, "lat": 37.570751, "score": 0.8097, "stay": 40}, {"id": "1364123367", "name": "돌체", "cat": "음식점", "cat2": "식당(기타)", "gu": "종로구", "lon": 126.988307, "lat": 37.572032, "score": 0.8093, "stay": 40}, {"id": "16556614", "name": "마당", "cat": "음식점", "cat2": "술집", "gu": "성북구", "lon": 127.022545, "lat": 37.603262, "score": 0.8088, "stay": 40}, {"id": "2140900712", "name": "종로덮밥", "cat": "음식점", "cat2": "한식", "gu": "종로구", "lon": 126.979923, "lat": 37.570845, "score": 0.8083, "stay": 40}, {"id": "196612031", "name": "당나발포차 성신여대점", "cat": "음식점", "cat2": "술집", "gu": "성북구", "lon": 127.017524, "lat": 37.591151, "score": 0.8083, "stay": 40}, {"id": "298517970", "name": "호선생전", "cat": "음식점", "cat2": "한식", "gu": "종로구", "lon": 127.001155, "lat": 37.570214, "score": 0.8082, "stay": 40}, {"id": "1526509038", "name": "솥뚜껑삼겹살", "cat": "음식점", "cat2": "한식", "gu": "성북구", "lon": 127.018173, "lat": 37.592463, "score": 0.8079, "stay": 40}, {"id": "18438081", "name": "완도집", "cat": "음식점", "cat2": "한식", "gu": "종로구", "lon": 126.991057, "lat": 37.573421, "score": 0.8078, "stay": 40}, {"id": "27545117", "name": "오렌지", "cat": "음식점", "cat2": "식당(기타)", "gu": "종로구", "lon": 126.972085, "lat": 37.573963, "score": 0.8078, "stay": 40}, {"id": "268566307", "name": "고베규카츠 대학로점", "cat": "음식점", "cat2": "식당(기타)", "gu": "종로구", "lon": 126.999937, "lat": 37.582309, "score": 0.8078, "stay": 40}, {"id": "151668613", "name": "일루", "cat": "음식점", "cat2": "술집", "gu": "성북구", "lon": 127.017097, "lat": 37.591755, "score": 0.8078, "stay": 40}, {"id": "2098826508", "name": "최우수", "cat": "음식점", "cat2": "식당(기타)", "gu": "성북구", "lon": 127.009103, "lat": 37.58863, "score": 0.8075, "stay": 40}, {"id": "47082505", "name": "천막집 2호점", "cat": "음식점", "cat2": "술집", "gu": "성북구", "lon": 127.017777, "lat": 37.591242, "score": 0.8074, "stay": 40}, {"id": "967729291", "name": "일품진진수라 광화문점", "cat": "음식점", "cat2": "한식", "gu": "종로구", "lon": 126.980544, "lat": 37.570636, "score": 0.8069, "stay": 40}, {"id": "1853756930", "name": "낙원장", "cat": "음식점", "cat2": "술집", "gu": "종로구", "lon": 126.989959, "lat": 37.572978, "score": 0.8068, "stay": 40}, {"id": "1580697380", "name": "왕초바베큐 종로점", "cat": "음식점", "cat2": "식당(기타)", "gu": "종로구", "lon": 126.984934, "lat": 37.569325, "score": 0.8066, "stay": 40}, {"id": "1013194624", "name": "56st 성신여대점", "cat": "음식점", "cat2": "술집", "gu": "성북구", "lon": 127.017482, "lat": 37.591692, "score": 0.8065, "stay": 40}, {"id": "119873086", "name": "모루카츠", "cat": "음식점", "cat2": "식당(기타)", "gu": "종로구", "lon": 126.979715, "lat": 37.571091, "score": 0.8064, "stay": 40}, {"id": "416918688", "name": "고니", "cat": "음식점", "cat2": "술집", "gu": "성북구", "lon": 127.019407, "lat": 37.590962, "score": 0.8062, "stay": 40}, {"id": "1131188792", "name": "이가네양꼬치 종각역직영점", "cat": "음식점", "cat2": "식당(기타)", "gu": "종로구", "lon": 126.985421, "lat": 37.569276, "score": 0.8055, "stay": 40}, {"id": "1077300924", "name": "딱좋아", "cat": "음식점", "cat2": "한식", "gu": "성북구", "lon": 127.009494, "lat": 37.588032, "score": 0.8053, "stay": 40}, {"id": "10808612", "name": "종로보쌈", "cat": "음식점", "cat2": "한식", "gu": "종로구", "lon": 126.999638, "lat": 37.571765, "score": 0.8052, "stay": 40}, {"id": "916333750", "name": "뎁짜이", "cat": "음식점", "cat2": "식당(기타)", "gu": "종로구", "lon": 126.999185, "lat": 37.582377, "score": 0.8051, "stay": 40}, {"id": "282791167", "name": "하늘정원", "cat": "음식점", "cat2": "술집", "gu": "종로구", "lon": 126.990772, "lat": 37.571509, "score": 0.805, "stay": 40}, {"id": "1315083198", "name": "스시소라 광화문점", "cat": "음식점", "cat2": "식당(기타)", "gu": "종로구", "lon": 126.979853, "lat": 37.570564, "score": 0.8048, "stay": 40}, {"id": "16983115", "name": "안주마을", "cat": "음식점", "cat2": "술집", "gu": "종로구", "lon": 126.972167, "lat": 37.576458, "score": 0.8047, "stay": 40}, {"id": "808212840", "name": "광안리", "cat": "음식점", "cat2": "한식", "gu": "종로구", "lon": 126.989643, "lat": 37.569394, "score": 0.8044, "stay": 40}, {"id": "704759249", "name": "서촌뜰애우곱창타운", "cat": "음식점", "cat2": "한식", "gu": "종로구", "lon": 126.971608, "lat": 37.576562, "score": 0.8043, "stay": 40}, {"id": "2102731794", "name": "스페이스", "cat": "음식점", "cat2": "술집", "gu": "중구", "lon": 127.021436, "lat": 37.5667, "score": 0.8043, "stay": 40}, {"id": "25463398", "name": "독일주택", "cat": "음식점", "cat2": "술집", "gu": "종로구", "lon": 127.000521, "lat": 37.582999, "score": 0.8042, "stay": 40}, {"id": "26558016", "name": "광화문집", "cat": "음식점", "cat2": "한식", "gu": "종로구", "lon": 126.974983, "lat": 37.571366, "score": 0.8041, "stay": 40}, {"id": "545884369", "name": "갸우뚱", "cat": "음식점", "cat2": "식당(기타)", "gu": "종로구", "lon": 127.000411, "lat": 37.581575, "score": 0.8041, "stay": 40}, {"id": "16043033", "name": "올인", "cat": "음식점", "cat2": "식당(기타)", "gu": "종로구", "lon": 126.990772, "lat": 37.571509, "score": 0.804, "stay": 40}, {"id": "1636587272", "name": "아람", "cat": "음식점", "cat2": "식당(기타)", "gu": "종로구", "lon": 126.9735, "lat": 37.571849, "score": 0.804, "stay": 40}, {"id": "283949925", "name": "탐라담 종각점", "cat": "음식점", "cat2": "한식", "gu": "종로구", "lon": 126.984852, "lat": 37.569671, "score": 0.8039, "stay": 40}, {"id": "1986973054", "name": "팔각도 성신여대점", "cat": "음식점", "cat2": "한식", "gu": "성북구", "lon": 127.017179, "lat": 37.591596, "score": 0.8038, "stay": 40}, {"id": "994593178", "name": "해너미", "cat": "음식점", "cat2": "한식", "gu": "성북구", "lon": 127.019237, "lat": 37.590652, "score": 0.8025, "stay": 40}, {"id": "696951730", "name": "호호식당 익선", "cat": "음식점", "cat2": "식당(기타)", "gu": "종로구", "lon": 126.990467, "lat": 37.572953, "score": 0.8024, "stay": 40}, {"id": "55677891", "name": "새서울", "cat": "음식점", "cat2": "술집", "gu": "종로구", "lon": 126.989836, "lat": 37.572796, "score": 0.8023, "stay": 40}, {"id": "14820418", "name": "달빛마루", "cat": "음식점", "cat2": "술집", "gu": "종로구", "lon": 127.000299, "lat": 37.582318, "score": 0.8022, "stay": 40}, {"id": "767240312", "name": "플레인", "cat": "음식점", "cat2": "식당(기타)", "gu": "종로구", "lon": 126.969961, "lat": 37.574558, "score": 0.8021, "stay": 40}, {"id": "790628817", "name": "우연화", "cat": "음식점", "cat2": "한식", "gu": "종로구", "lon": 126.990342, "lat": 37.572913, "score": 0.8021, "stay": 40}, {"id": "965450593", "name": "팬시", "cat": "음식점", "cat2": "술집", "gu": "종로구", "lon": 126.990311, "lat": 37.571145, "score": 0.8017, "stay": 40}, {"id": "1539312493", "name": "나래함박", "cat": "음식점", "cat2": "식당(기타)", "gu": "종로구", "lon": 127.000181, "lat": 37.581711, "score": 0.8016, "stay": 40}, {"id": "8148901", "name": "향정", "cat": "음식점", "cat2": "한식", "gu": "종로구", "lon": 126.984088, "lat": 37.574309, "score": 0.8014, "stay": 40}, {"id": "20950553", "name": "허그", "cat": "음식점", "cat2": "식당(기타)", "gu": "종로구", "lon": 127.00101, "lat": 37.583136, "score": 0.8013, "stay": 40}, {"id": "1269666230", "name": "너구리소굴", "cat": "음식점", "cat2": "한식", "gu": "종로구", "lon": 126.986444, "lat": 37.569661, "score": 0.8012, "stay": 40}, {"id": "443602811", "name": "디딤돌", "cat": "음식점", "cat2": "한식", "gu": "성북구", "lon": 127.007441, "lat": 37.58852, "score": 0.8011, "stay": 40}, {"id": "360939747", "name": "우리집", "cat": "음식점", "cat2": "한식", "gu": "종로구", "lon": 127.003836, "lat": 37.571601, "score": 0.801, "stay": 40}, {"id": "98220720", "name": "팔오구 코리안비스트로", "cat": "음식점", "cat2": "술집", "gu": "종로구", "lon": 127.000832, "lat": 37.582454, "score": 0.801, "stay": 40}, {"id": "761329037", "name": "죽마고돈", "cat": "음식점", "cat2": "한식", "gu": "종로구", "lon": 126.9852, "lat": 37.56938, "score": 0.8006, "stay": 40}, {"id": "1913957413", "name": "해천어부", "cat": "음식점", "cat2": "식당(기타)", "gu": "종로구", "lon": 126.989165, "lat": 37.572936, "score": 0.8004, "stay": 40}, {"id": "739237589", "name": "후토루 대학로점", "cat": "음식점", "cat2": "식당(기타)", "gu": "종로구", "lon": 127.000436, "lat": 37.58233, "score": 0.8002, "stay": 40}, {"id": "18755047", "name": "전주콩나물국밥", "cat": "음식점", "cat2": "한식", "gu": "종로구", "lon": 126.97991, "lat": 37.570682, "score": 0.8002, "stay": 40}, {"id": "16903323", "name": "광화문김밥", "cat": "음식점", "cat2": "식당(기타)", "gu": "종로구", "lon": 126.980792, "lat": 37.572204, "score": 0.8001, "stay": 40}, {"id": "1217164101", "name": "연하동 대학로점", "cat": "음식점", "cat2": "식당(기타)", "gu": "종로구", "lon": 126.9993, "lat": 37.58247, "score": 0.8, "stay": 40}, {"id": "763250184", "name": "남도분식 익선점", "cat": "음식점", "cat2": "식당(기타)", "gu": "종로구", "lon": 126.990076, "lat": 37.573149, "score": 0.7993, "stay": 40}, {"id": "731893248", "name": "부엉이산장 종각점", "cat": "음식점", "cat2": "술집", "gu": "종로구", "lon": 126.985582, "lat": 37.569334, "score": 0.7993, "stay": 40}, {"id": "1089191865", "name": "한잔더", "cat": "음식점", "cat2": "술집", "gu": "종로구", "lon": 126.997113, "lat": 37.5839, "score": 0.7993, "stay": 40}, {"id": "16328602", "name": "좋은하루", "cat": "음식점", "cat2": "한식", "gu": "종로구", "lon": 126.979166, "lat": 37.574189, "score": 0.7992, "stay": 40}, {"id": "284803274", "name": "계단집", "cat": "음식점", "cat2": "식당(기타)", "gu": "종로구", "lon": 126.971368, "lat": 37.576541, "score": 0.7992, "stay": 40}, {"id": "896560888", "name": "어망집", "cat": "음식점", "cat2": "식당(기타)", "gu": "종로구", "lon": 126.984767, "lat": 37.569249, "score": 0.7991, "stay": 40}, {"id": "17375556", "name": "올디스", "cat": "음식점", "cat2": "술집", "gu": "종로구", "lon": 126.999828, "lat": 37.582772, "score": 0.7988, "stay": 40}, {"id": "9262731", "name": "안개꽃", "cat": "음식점", "cat2": "식당(기타)", "gu": "종로구", "lon": 126.975232, "lat": 37.571273, "score": 0.7986, "stay": 40}, {"id": "717593168", "name": "익선고로", "cat": "음식점", "cat2": "식당(기타)", "gu": "종로구", "lon": 126.990084, "lat": 37.573513, "score": 0.7985, "stay": 40}, {"id": "790833529", "name": "자갈치", "cat": "음식점", "cat2": "한식", "gu": "종로구", "lon": 126.990081, "lat": 37.574358, "score": 0.7984, "stay": 40}, {"id": "812096607", "name": "커먼", "cat": "음식점", "cat2": "술집", "gu": "종로구", "lon": 126.991407, "lat": 37.572365, "score": 0.7982, "stay": 40}, {"id": "930817968", "name": "장인닭갈비 종로점", "cat": "음식점", "cat2": "한식", "gu": "종로구", "lon": 126.985863, "lat": 37.568608, "score": 0.7979, "stay": 40}, {"id": "1618556444", "name": "새겹식당", "cat": "음식점", "cat2": "한식", "gu": "종로구", "lon": 126.98634, "lat": 37.56948, "score": 0.7976, "stay": 40}, {"id": "1504745731", "name": "미노", "cat": "음식점", "cat2": "한식", "gu": "종로구", "lon": 126.989162, "lat": 37.572911, "score": 0.7972, "stay": 40}, {"id": "201101326", "name": "연꽃치 성신여대점", "cat": "음식점", "cat2": "술집", "gu": "성북구", "lon": 127.017355, "lat": 37.591096, "score": 0.7972, "stay": 40}, {"id": "15716218", "name": "제주오겹살", "cat": "음식점", "cat2": "한식", "gu": "종로구", "lon": 126.98077, "lat": 37.572766, "score": 0.7971, "stay": 40}, {"id": "19009757", "name": "순이네", "cat": "음식점", "cat2": "한식", "gu": "종로구", "lon": 126.97188, "lat": 37.577132, "score": 0.7971, "stay": 40}, {"id": "1336805940", "name": "아리계곡 종각점", "cat": "음식점", "cat2": "한식", "gu": "종로구", "lon": 126.985398, "lat": 37.569632, "score": 0.797, "stay": 40}, {"id": "349604624", "name": "난장", "cat": "음식점", "cat2": "술집", "gu": "종로구", "lon": 126.973126, "lat": 37.573773, "score": 0.7966, "stay": 40}, {"id": "2142267964", "name": "이층양옥", "cat": "음식점", "cat2": "식당(기타)", "gu": "종로구", "lon": 126.99053, "lat": 37.573888, "score": 0.7966, "stay": 40}, {"id": "1400453236", "name": "핵밥 대학로점", "cat": "음식점", "cat2": "한식", "gu": "종로구", "lon": 127.000728, "lat": 37.581717, "score": 0.7965, "stay": 40}, {"id": "1590728255", "name": "일미", "cat": "음식점", "cat2": "한식", "gu": "중구", "lon": 127.020289, "lat": 37.566259, "score": 0.7962, "stay": 40}, {"id": "8797474", "name": "김밥천국", "cat": "음식점", "cat2": "식당(기타)", "gu": "종로구", "lon": 126.972325, "lat": 37.576475, "score": 0.7959, "stay": 40}, {"id": "19156993", "name": "서촌계단집", "cat": "음식점", "cat2": "한식", "gu": "종로구", "lon": 126.971425, "lat": 37.576414, "score": 0.7958, "stay": 40}, {"id": "2057838663", "name": "홍지로스", "cat": "음식점", "cat2": "한식", "gu": "종로구", "lon": 126.988123, "lat": 37.573083, "score": 0.7956, "stay": 40}, {"id": "16650576", "name": "세림", "cat": "음식점", "cat2": "한식", "gu": "종로구", "lon": 126.979991, "lat": 37.567579, "score": 0.7956, "stay": 40}, {"id": "24048545", "name": "종로삼겹살", "cat": "음식점", "cat2": "한식", "gu": "종로구", "lon": 126.999651, "lat": 37.570641, "score": 0.7955, "stay": 40}, {"id": "743903601", "name": "홍복성", "cat": "음식점", "cat2": "식당(기타)", "gu": "종로구", "lon": 126.981811, "lat": 37.572445, "score": 0.7951, "stay": 40}, {"id": "744594188", "name": "차이들 안녕인사동점", "cat": "음식점", "cat2": "식당(기타)", "gu": "종로구", "lon": 126.983552, "lat": 37.574467, "score": 0.7951, "stay": 40}, {"id": "17587781", "name": "동남", "cat": "음식점", "cat2": "식당(기타)", "gu": "종로구", "lon": 126.971522, "lat": 37.579858, "score": 0.7951, "stay": 40}, {"id": "1704748711", "name": "카린지린가네스낵바 광화문점", "cat": "음식점", "cat2": "식당(기타)", "gu": "종로구", "lon": 126.98074, "lat": 37.57186, "score": 0.7949, "stay": 40}, {"id": "284005404", "name": "도톰", "cat": "음식점", "cat2": "한식", "gu": "종로구", "lon": 126.98869, "lat": 37.573294, "score": 0.7949, "stay": 40}, {"id": "1412302665", "name": "루다", "cat": "음식점", "cat2": "한식", "gu": "종로구", "lon": 127.000583, "lat": 37.583757, "score": 0.7948, "stay": 40}, {"id": "1824540706", "name": "북촌칼국수", "cat": "음식점", "cat2": "한식", "gu": "종로구", "lon": 126.984392, "lat": 37.574467, "score": 0.7948, "stay": 40}, {"id": "19613201", "name": "서대포집", "cat": "음식점", "cat2": "한식", "gu": "종로구", "lon": 126.991026, "lat": 37.57307, "score": 0.7947, "stay": 40}, {"id": "9631798", "name": "신촌황소곱창 종로점", "cat": "음식점", "cat2": "한식", "gu": "종로구", "lon": 126.986494, "lat": 37.569135, "score": 0.794, "stay": 40}, {"id": "268905142", "name": "반쿤콴", "cat": "음식점", "cat2": "식당(기타)", "gu": "종로구", "lon": 126.984315, "lat": 37.569098, "score": 0.7939, "stay": 40}, {"id": "1204972726", "name": "승승장구", "cat": "음식점", "cat2": "한식", "gu": "종로구", "lon": 126.989657, "lat": 37.570759, "score": 0.7939, "stay": 40}, {"id": "1491327179", "name": "853", "cat": "음식점", "cat2": "한식", "gu": "종로구", "lon": 126.985103, "lat": 37.574727, "score": 0.7939, "stay": 40}, {"id": "27271374", "name": "후니도니", "cat": "음식점", "cat2": "식당(기타)", "gu": "종로구", "lon": 126.980123, "lat": 37.570933, "score": 0.7938, "stay": 40}, {"id": "319796897", "name": "아이소", "cat": "음식점", "cat2": "식당(기타)", "gu": "종로구", "lon": 126.991411, "lat": 37.571296, "score": 0.7936, "stay": 40}, {"id": "742894106", "name": "이자카야나무 종각점", "cat": "음식점", "cat2": "술집", "gu": "종로구", "lon": 126.984289, "lat": 37.569296, "score": 0.7933, "stay": 40}, {"id": "1969670229", "name": "이도", "cat": "음식점", "cat2": "한식", "gu": "중구", "lon": 127.020967, "lat": 37.566464, "score": 0.7932, "stay": 40}, {"id": "761215524", "name": "일미식당", "cat": "음식점", "cat2": "한식", "gu": "종로구", "lon": 126.988576, "lat": 37.573077, "score": 0.7932, "stay": 40}, {"id": "1385291843", "name": "엄마손", "cat": "음식점", "cat2": "식당(기타)", "gu": "종로구", "lon": 127.006577, "lat": 37.570816, "score": 0.793, "stay": 40}, {"id": "21407452", "name": "워싱턴", "cat": "음식점", "cat2": "한식", "gu": "종로구", "lon": 126.988585, "lat": 37.574223, "score": 0.7928, "stay": 40}, {"id": "730535237", "name": "인생횟집", "cat": "음식점", "cat2": "한식", "gu": "종로구", "lon": 126.984566, "lat": 37.569643, "score": 0.7927, "stay": 40}, {"id": "188239568", "name": "마중", "cat": "음식점", "cat2": "한식", "gu": "종로구", "lon": 126.999457, "lat": 37.572349, "score": 0.7925, "stay": 40}, {"id": "16037219", "name": "선천", "cat": "음식점", "cat2": "한식", "gu": "종로구", "lon": 126.984414, "lat": 37.574864, "score": 0.7924, "stay": 40}, {"id": "15446671", "name": "함흥냉면", "cat": "음식점", "cat2": "한식", "gu": "종로구", "lon": 127.00858, "lat": 37.568168, "score": 0.7923, "stay": 40}, {"id": "1196036428", "name": "도쿄커틀릿", "cat": "음식점", "cat2": "식당(기타)", "gu": "성북구", "lon": 127.01866, "lat": 37.590638, "score": 0.7922, "stay": 40}, {"id": "804923494", "name": "모던샤브하우스 광화문D타워점", "cat": "음식점", "cat2": "식당(기타)", "gu": "종로구", "lon": 126.978911, "lat": 37.570996, "score": 0.7921, "stay": 40}, {"id": "1106001789", "name": "을지면옥", "cat": "음식점", "cat2": "한식", "gu": "종로구", "lon": 126.988567, "lat": 37.573727, "score": 0.7921, "stay": 40}, {"id": "19119689", "name": "마지", "cat": "음식점", "cat2": "한식", "gu": "종로구", "lon": 126.970797, "lat": 37.577618, "score": 0.7918, "stay": 40}, {"id": "22837398", "name": "초원", "cat": "음식점", "cat2": "한식", "gu": "종로구", "lon": 127.010713, "lat": 37.571181, "score": 0.7917, "stay": 40}, {"id": "21298128", "name": "가가", "cat": "음식점", "cat2": "한식", "gu": "종로구", "lon": 126.986483, "lat": 37.577646, "score": 0.7914, "stay": 40}, {"id": "1478588810", "name": "일월육일 종각점", "cat": "음식점", "cat2": "술집", "gu": "종로구", "lon": 126.985108, "lat": 37.569123, "score": 0.7914, "stay": 40}, {"id": "2139655334", "name": "크으", "cat": "음식점", "cat2": "술집", "gu": "종로구", "lon": 126.988707, "lat": 37.568523, "score": 0.7913, "stay": 40}, {"id": "865978738", "name": "종로수제비", "cat": "음식점", "cat2": "한식", "gu": "종로구", "lon": 126.979815, "lat": 37.57087, "score": 0.7913, "stay": 40}, {"id": "1715596267", "name": "이층양옥", "cat": "음식점", "cat2": "식당(기타)", "gu": "종로구", "lon": 126.990405, "lat": 37.573953, "score": 0.7911, "stay": 40}, {"id": "1324791248", "name": "행아웃", "cat": "음식점", "cat2": "술집", "gu": "종로구", "lon": 126.99031, "lat": 37.573553, "score": 0.791, "stay": 40}, {"id": "85526886", "name": "을지맥옥 광화문점", "cat": "음식점", "cat2": "술집", "gu": "종로구", "lon": 126.975141, "lat": 37.571125, "score": 0.791, "stay": 40}, {"id": "1368324452", "name": "무위낙원", "cat": "음식점", "cat2": "식당(기타)", "gu": "종로구", "lon": 126.98945, "lat": 37.573448, "score": 0.7909, "stay": 40}, {"id": "793359690", "name": "떡상", "cat": "음식점", "cat2": "술집", "gu": "종로구", "lon": 126.984808, "lat": 37.575045, "score": 0.7907, "stay": 40}, {"id": "1067696264", "name": "호미관", "cat": "음식점", "cat2": "식당(기타)", "gu": "종로구", "lon": 126.980475, "lat": 37.571036, "score": 0.7907, "stay": 40}, {"id": "1455298074", "name": "역전포장마차 종각종로점", "cat": "음식점", "cat2": "술집", "gu": "종로구", "lon": 126.986625, "lat": 37.569085, "score": 0.7905, "stay": 40}, {"id": "13627376", "name": "진아춘", "cat": "음식점", "cat2": "식당(기타)", "gu": "종로구", "lon": 127.000533, "lat": 37.582841, "score": 0.7904, "stay": 40}, {"id": "15722296", "name": "대장금", "cat": "음식점", "cat2": "한식", "gu": "종로구", "lon": 126.973126, "lat": 37.57377, "score": 0.7903, "stay": 40}, {"id": "770722282", "name": "세시", "cat": "음식점", "cat2": "식당(기타)", "gu": "성북구", "lon": 127.018472, "lat": 37.590442, "score": 0.7902, "stay": 40}, {"id": "1685764058", "name": "행복한", "cat": "음식점", "cat2": "식당(기타)", "gu": "종로구", "lon": 126.982244, "lat": 37.578454, "score": 0.7901, "stay": 40}, {"id": "19189056", "name": "해밀", "cat": "음식점", "cat2": "한식", "gu": "성북구", "lon": 127.019561, "lat": 37.591632, "score": 0.79, "stay": 40}, {"id": "16037836", "name": "프랜즈", "cat": "음식점", "cat2": "술집", "gu": "종로구", "lon": 126.988861, "lat": 37.572897, "score": 0.7899, "stay": 40}, {"id": "16764873", "name": "바니", "cat": "음식점", "cat2": "술집", "gu": "종로구", "lon": 126.981255, "lat": 37.567821, "score": 0.789, "stay": 40}, {"id": "16586253", "name": "동학", "cat": "음식점", "cat2": "한식", "gu": "종로구", "lon": 126.999112, "lat": 37.583759, "score": 0.7889, "stay": 40}, {"id": "14951761", "name": "체부동잔치집", "cat": "음식점", "cat2": "한식", "gu": "종로구", "lon": 126.971468, "lat": 37.576523, "score": 0.7885, "stay": 40}, {"id": "1731111202", "name": "오두막", "cat": "음식점", "cat2": "한식", "gu": "종로구", "lon": 126.975812, "lat": 37.571493, "score": 0.7884, "stay": 40}, {"id": "2025215095", "name": "살롱순라", "cat": "음식점", "cat2": "식당(기타)", "gu": "종로구", "lon": 126.99168, "lat": 37.574151, "score": 0.788, "stay": 40}, {"id": "596869610", "name": "성북에서", "cat": "음식점", "cat2": "술집", "gu": "성북구", "lon": 127.008123, "lat": 37.587977, "score": 0.7878, "stay": 40}, {"id": "815913780", "name": "고운돈", "cat": "음식점", "cat2": "한식", "gu": "종로구", "lon": 126.989989, "lat": 37.573073, "score": 0.7878, "stay": 40}, {"id": "16961696", "name": "대원", "cat": "음식점", "cat2": "식당(기타)", "gu": "종로구", "lon": 126.992887, "lat": 37.57223, "score": 0.7877, "stay": 40}, {"id": "289535795", "name": "미갈매기살", "cat": "음식점", "cat2": "한식", "gu": "종로구", "lon": 126.991255, "lat": 37.57287, "score": 0.7876, "stay": 40}, {"id": "1020040466", "name": "우공", "cat": "음식점", "cat2": "술집", "gu": "성북구", "lon": 127.017156, "lat": 37.591103, "score": 0.7874, "stay": 40}, {"id": "556866930", "name": "이자카야 우규 성신여대점", "cat": "음식점", "cat2": "술집", "gu": "성북구", "lon": 127.017539, "lat": 37.59156, "score": 0.7874, "stay": 40}, {"id": "1007197712", "name": "일품 광화문점", "cat": "음식점", "cat2": "식당(기타)", "gu": "종로구", "lon": 126.979823, "lat": 37.570784, "score": 0.7871, "stay": 40}, {"id": "27540102", "name": "청진옥", "cat": "음식점", "cat2": "한식", "gu": "종로구", "lon": 126.979449, "lat": 37.571718, "score": 0.787, "stay": 40}, {"id": "2135372050", "name": "육즙당 광화문점", "cat": "음식점", "cat2": "한식", "gu": "종로구", "lon": 126.975032, "lat": 37.571253, "score": 0.787, "stay": 40}, {"id": "609458485", "name": "15번출구", "cat": "음식점", "cat2": "술집", "gu": "종로구", "lon": 126.991461, "lat": 37.569949, "score": 0.7869, "stay": 40}, {"id": "1024788121", "name": "광장시장찹쌀꽈배기", "cat": "음식점", "cat2": "식당(기타)", "gu": "종로구", "lon": 127.000405, "lat": 37.570667, "score": 0.7868, "stay": 40}, {"id": "26628758", "name": "소친친", "cat": "음식점", "cat2": "식당(기타)", "gu": "종로구", "lon": 126.999765, "lat": 37.58261, "score": 0.7866, "stay": 40}, {"id": "1614183457", "name": "촌집", "cat": "음식점", "cat2": "한식", "gu": "종로구", "lon": 126.988839, "lat": 37.572003, "score": 0.7863, "stay": 40}, {"id": "47908415", "name": "청킹마마", "cat": "음식점", "cat2": "식당(기타)", "gu": "종로구", "lon": 126.984637, "lat": 37.569668, "score": 0.786, "stay": 40}, {"id": "1087881953", "name": "연남족발1987 종각점", "cat": "음식점", "cat2": "한식", "gu": "종로구", "lon": 126.986049, "lat": 37.568929, "score": 0.7859, "stay": 40}, {"id": "16377689", "name": "통돼지집", "cat": "음식점", "cat2": "한식", "gu": "종로구", "lon": 126.990644, "lat": 37.573191, "score": 0.7859, "stay": 40}, {"id": "1780658329", "name": "일심", "cat": "음식점", "cat2": "술집", "gu": "종로구", "lon": 126.982235, "lat": 37.571838, "score": 0.7858, "stay": 40}, {"id": "15398824", "name": "감촌", "cat": "음식점", "cat2": "한식", "gu": "종로구", "lon": 126.979892, "lat": 37.570931, "score": 0.7858, "stay": 40}, {"id": "10684739", "name": "유도리", "cat": "음식점", "cat2": "술집", "gu": "종로구", "lon": 126.985522, "lat": 37.569663, "score": 0.7858, "stay": 40}, {"id": "16038633", "name": "최대감네", "cat": "음식점", "cat2": "한식", "gu": "종로구", "lon": 126.986121, "lat": 37.574039, "score": 0.7857, "stay": 40}, {"id": "1574451756", "name": "명동칼국수", "cat": "음식점", "cat2": "한식", "gu": "종로구", "lon": 127.005977, "lat": 37.570205, "score": 0.7857, "stay": 40}, {"id": "26545925", "name": "토속촌삼계탕", "cat": "음식점", "cat2": "한식", "gu": "종로구", "lon": 126.971494, "lat": 37.577723, "score": 0.7857, "stay": 40}, {"id": "7957823", "name": "수요일", "cat": "카페", "cat2": "카페", "gu": "종로구", "lon": 126.985415, "lat": 37.573797, "score": 0.9135, "stay": 20}, {"id": "579941427", "name": "휴식", "cat": "카페", "cat2": "카페", "gu": "종로구", "lon": 126.981495, "lat": 37.568102, "score": 0.8937, "stay": 20}, {"id": "1759358358", "name": "팔", "cat": "카페", "cat2": "카페", "gu": "종로구", "lon": 126.970848, "lat": 37.579572, "score": 0.8873, "stay": 20}, {"id": "585244457", "name": "비밀", "cat": "카페", "cat2": "카페", "gu": "종로구", "lon": 127.007766, "lat": 37.567712, "score": 0.8823, "stay": 20}, {"id": "16961708", "name": "오렌지", "cat": "카페", "cat2": "카페", "gu": "종로구", "lon": 126.989704, "lat": 37.569728, "score": 0.8715, "stay": 20}, {"id": "26502297", "name": "안에", "cat": "카페", "cat2": "카페", "gu": "종로구", "lon": 126.980471, "lat": 37.572921, "score": 0.8696, "stay": 20}, {"id": "555017652", "name": "마셔", "cat": "카페", "cat2": "카페", "gu": "종로구", "lon": 126.97323, "lat": 37.576411, "score": 0.8677, "stay": 20}, {"id": "1676916654", "name": "몬스터", "cat": "카페", "cat2": "카페", "gu": "종로구", "lon": 126.981787, "lat": 37.567649, "score": 0.862, "stay": 20}, {"id": "1282261224", "name": "베란다", "cat": "카페", "cat2": "카페", "gu": "종로구", "lon": 126.970556, "lat": 37.575427, "score": 0.8617, "stay": 20}, {"id": "517442171", "name": "결", "cat": "카페", "cat2": "카페", "gu": "종로구", "lon": 126.983575, "lat": 37.571889, "score": 0.8553, "stay": 20}, {"id": "1649299643", "name": "피카디리", "cat": "카페", "cat2": "카페", "gu": "종로구", "lon": 126.991232, "lat": 37.571028, "score": 0.8531, "stay": 20}, {"id": "1274592283", "name": "굽기", "cat": "카페", "cat2": "카페", "gu": "종로구", "lon": 127.004599, "lat": 37.581918, "score": 0.8515, "stay": 20}, {"id": "15344066", "name": "다락", "cat": "카페", "cat2": "카페", "gu": "종로구", "lon": 126.974802, "lat": 37.570959, "score": 0.8498, "stay": 20}, {"id": "404984737", "name": "낙원역", "cat": "카페", "cat2": "카페", "gu": "종로구", "lon": 126.99007, "lat": 37.573365, "score": 0.8488, "stay": 20}, {"id": "1366257423", "name": "스푼", "cat": "카페", "cat2": "카페", "gu": "종로구", "lon": 126.974195, "lat": 37.573604, "score": 0.8461, "stay": 20}, {"id": "576866836", "name": "한옥랑솜", "cat": "카페", "cat2": "카페", "gu": "종로구", "lon": 126.989827, "lat": 37.573182, "score": 0.8438, "stay": 20}, {"id": "27104244", "name": "티파니", "cat": "카페", "cat2": "카페", "gu": "종로구", "lon": 127.00327, "lat": 37.581611, "score": 0.8433, "stay": 20}, {"id": "2094351797", "name": "보통의", "cat": "카페", "cat2": "카페", "gu": "종로구", "lon": 127.004189, "lat": 37.580559, "score": 0.8399, "stay": 20}, {"id": "1356125123", "name": "카페광화문", "cat": "카페", "cat2": "카페", "gu": "종로구", "lon": 126.973979, "lat": 37.572971, "score": 0.8394, "stay": 20}, {"id": "1118912552", "name": "탑골", "cat": "카페", "cat2": "카페", "gu": "종로구", "lon": 126.989, "lat": 37.570941, "score": 0.8352, "stay": 20}, {"id": "2084457534", "name": "카페하이웨스트 익선점", "cat": "카페", "cat2": "카페", "gu": "종로구", "lon": 126.990672, "lat": 37.573124, "score": 0.835, "stay": 20}, {"id": "1822481162", "name": "카페랑솜", "cat": "카페", "cat2": "카페", "gu": "종로구", "lon": 127.00043, "lat": 37.582332, "score": 0.8347, "stay": 20}, {"id": "687926411", "name": "거처", "cat": "카페", "cat2": "카페", "gu": "종로구", "lon": 126.99138, "lat": 37.574482, "score": 0.8253, "stay": 20}, {"id": "1040902057", "name": "몹시", "cat": "카페", "cat2": "카페", "gu": "종로구", "lon": 126.971703, "lat": 37.579214, "score": 0.823, "stay": 20}, {"id": "1202876840", "name": "서울커피 익선점", "cat": "카페", "cat2": "카페", "gu": "종로구", "lon": 126.990047, "lat": 37.573315, "score": 0.8224, "stay": 20}, {"id": "862082633", "name": "그라피", "cat": "카페", "cat2": "카페", "gu": "종로구", "lon": 126.985375, "lat": 37.569663, "score": 0.8222, "stay": 20}, {"id": "1424960202", "name": "다인", "cat": "카페", "cat2": "카페", "gu": "종로구", "lon": 126.98611, "lat": 37.573283, "score": 0.8213, "stay": 20}, {"id": "15623704", "name": "엔젤", "cat": "카페", "cat2": "카페", "gu": "종로구", "lon": 127.008471, "lat": 37.568114, "score": 0.8213, "stay": 20}, {"id": "16531524", "name": "수채화", "cat": "카페", "cat2": "카페", "gu": "종로구", "lon": 126.984526, "lat": 37.571042, "score": 0.8205, "stay": 20}, {"id": "1031656984", "name": "학사다방", "cat": "카페", "cat2": "카페", "gu": "종로구", "lon": 126.98665, "lat": 37.569293, "score": 0.8203, "stay": 20}, {"id": "1783596748", "name": "길음동", "cat": "카페", "cat2": "카페", "gu": "성북구", "lon": 127.023438, "lat": 37.603785, "score": 0.8202, "stay": 20}, {"id": "1061286609", "name": "스테이", "cat": "카페", "cat2": "카페", "gu": "종로구", "lon": 127.003578, "lat": 37.582972, "score": 0.8197, "stay": 20}, {"id": "1031567933", "name": "트러블", "cat": "카페", "cat2": "카페", "gu": "종로구", "lon": 126.975525, "lat": 37.569531, "score": 0.819, "stay": 20}, {"id": "10405822", "name": "반쥴", "cat": "카페", "cat2": "카페", "gu": "종로구", "lon": 126.98619, "lat": 37.569062, "score": 0.8187, "stay": 20}, {"id": "14323356", "name": "룸메이트", "cat": "카페", "cat2": "카페", "gu": "성북구", "lon": 127.018583, "lat": 37.59111, "score": 0.8137, "stay": 20}, {"id": "19553337", "name": "1358", "cat": "카페", "cat2": "카페", "gu": "종로구", "lon": 126.992044, "lat": 37.572439, "score": 0.8137, "stay": 20}, {"id": "15682271", "name": "인산인해", "cat": "카페", "cat2": "카페", "gu": "종로구", "lon": 126.985941, "lat": 37.573116, "score": 0.8128, "stay": 20}, {"id": "1762572814", "name": "그루", "cat": "카페", "cat2": "카페", "gu": "종로구", "lon": 127.00377, "lat": 37.582287, "score": 0.8125, "stay": 20}, {"id": "1906686016", "name": "빈티지", "cat": "카페", "cat2": "카페", "gu": "종로구", "lon": 126.992746, "lat": 37.572201, "score": 0.811, "stay": 20}, {"id": "7858535", "name": "뜰안", "cat": "카페", "cat2": "카페", "gu": "종로구", "lon": 126.989382, "lat": 37.573682, "score": 0.8096, "stay": 20}, {"id": "1315254488", "name": "연구실", "cat": "카페", "cat2": "카페", "gu": "종로구", "lon": 126.968916, "lat": 37.580566, "score": 0.8056, "stay": 20}, {"id": "1959516004", "name": "플리퍼스 익선점", "cat": "카페", "cat2": "카페", "gu": "종로구", "lon": 126.99012, "lat": 37.57308, "score": 0.8042, "stay": 20}, {"id": "499490341", "name": "온지심", "cat": "카페", "cat2": "카페", "gu": "종로구", "lon": 126.99057, "lat": 37.573158, "score": 0.8027, "stay": 20}, {"id": "1742096339", "name": "카페온화 익선점", "cat": "카페", "cat2": "카페", "gu": "종로구", "lon": 126.989848, "lat": 37.573293, "score": 0.8024, "stay": 20}, {"id": "114545288", "name": "산스", "cat": "카페", "cat2": "카페", "gu": "종로구", "lon": 126.990225, "lat": 37.572933, "score": 0.8019, "stay": 20}, {"id": "21356316", "name": "반짝반짝빛나는", "cat": "카페", "cat2": "카페", "gu": "종로구", "lon": 126.986063, "lat": 37.573278, "score": 0.8013, "stay": 20}, {"id": "1580580006", "name": "커피와차", "cat": "카페", "cat2": "카페", "gu": "종로구", "lon": 126.972531, "lat": 37.577102, "score": 0.7999, "stay": 20}, {"id": "68035947", "name": "루스카", "cat": "카페", "cat2": "카페", "gu": "종로구", "lon": 126.990231, "lat": 37.573187, "score": 0.7965, "stay": 20}, {"id": "994688504", "name": "필터", "cat": "카페", "cat2": "카페", "gu": "성북구", "lon": 127.004248, "lat": 37.589839, "score": 0.796, "stay": 20}, {"id": "1951116198", "name": "랑솜", "cat": "카페", "cat2": "카페", "gu": "종로구", "lon": 126.985184, "lat": 37.573673, "score": 0.794, "stay": 20}, {"id": "1066887380", "name": "소소", "cat": "카페", "cat2": "카페", "gu": "종로구", "lon": 126.989235, "lat": 37.569898, "score": 0.7918, "stay": 20}, {"id": "164051108", "name": "경복궁카페", "cat": "카페", "cat2": "카페", "gu": "종로구", "lon": 126.972306, "lat": 37.577906, "score": 0.7907, "stay": 20}, {"id": "1667021753", "name": "리베라", "cat": "카페", "cat2": "카페", "gu": "성북구", "lon": 127.018321, "lat": 37.592602, "score": 0.7903, "stay": 20}, {"id": "117385036", "name": "유목커피바", "cat": "카페", "cat2": "카페", "gu": "성북구", "lon": 127.018751, "lat": 37.591611, "score": 0.7897, "stay": 20}, {"id": "115589687", "name": "일번지", "cat": "카페", "cat2": "카페", "gu": "종로구", "lon": 126.985311, "lat": 37.570445, "score": 0.7889, "stay": 20}, {"id": "1499522186", "name": "폴루이트", "cat": "카페", "cat2": "카페", "gu": "종로구", "lon": 126.985402, "lat": 37.569663, "score": 0.7874, "stay": 20}, {"id": "2061620840", "name": "시그니처알", "cat": "카페", "cat2": "카페", "gu": "종로구", "lon": 126.990396, "lat": 37.57343, "score": 0.7869, "stay": 20}, {"id": "78911659", "name": "청수당 베이커리", "cat": "카페", "cat2": "카페", "gu": "종로구", "lon": 126.989785, "lat": 37.573881, "score": 0.7849, "stay": 20}, {"id": "16931240", "name": "사랑방", "cat": "카페", "cat2": "카페", "gu": "성북구", "lon": 127.00968, "lat": 37.608471, "score": 0.7843, "stay": 20}, {"id": "1990080317", "name": "예린", "cat": "카페", "cat2": "카페", "gu": "종로구", "lon": 126.974499, "lat": 37.571154, "score": 0.7831, "stay": 20}, {"id": "48003525", "name": "익선주택", "cat": "카페", "cat2": "카페", "gu": "종로구", "lon": 126.989423, "lat": 37.573617, "score": 0.781, "stay": 20}, {"id": "575297453", "name": "카페혜화동", "cat": "카페", "cat2": "카페", "gu": "종로구", "lon": 126.999914, "lat": 37.581903, "score": 0.7809, "stay": 20}, {"id": "870916614", "name": "티퍼런스 서울", "cat": "카페", "cat2": "카페", "gu": "종로구", "lon": 126.99093, "lat": 37.573913, "score": 0.7807, "stay": 20}, {"id": "1761099960", "name": "에디션엠", "cat": "카페", "cat2": "카페", "gu": "종로구", "lon": 127.000864, "lat": 37.582146, "score": 0.7796, "stay": 20}, {"id": "1780235408", "name": "천년동안도", "cat": "카페", "cat2": "카페", "gu": "종로구", "lon": 126.988571, "lat": 37.573055, "score": 0.7794, "stay": 20}, {"id": "1163163133", "name": "우지커피", "cat": "카페", "cat2": "카페", "gu": "종로구", "lon": 126.979693, "lat": 37.570825, "score": 0.7787, "stay": 20}, {"id": "1345866783", "name": "적당", "cat": "카페", "cat2": "카페", "gu": "종로구", "lon": 126.980814, "lat": 37.566527, "score": 0.7787, "stay": 20}, {"id": "1709558766", "name": "호랑이", "cat": "카페", "cat2": "카페", "gu": "종로구", "lon": 126.99545, "lat": 37.567466, "score": 0.778, "stay": 20}, {"id": "12423191", "name": "달", "cat": "카페", "cat2": "카페", "gu": "종로구", "lon": 126.982044, "lat": 37.583816, "score": 0.778, "stay": 20}, {"id": "782133904", "name": "마띠에르", "cat": "카페", "cat2": "카페", "gu": "종로구", "lon": 126.999271, "lat": 37.582312, "score": 0.7772, "stay": 20}, {"id": "630916358", "name": "동백양과점 익선점", "cat": "카페", "cat2": "카페", "gu": "종로구", "lon": 126.989599, "lat": 37.573405, "score": 0.775, "stay": 20}, {"id": "10356641", "name": "레아", "cat": "카페", "cat2": "카페", "gu": "종로구", "lon": 126.983961, "lat": 37.574597, "score": 0.7729, "stay": 20}, {"id": "16555259", "name": "사과나무", "cat": "카페", "cat2": "카페", "gu": "종로구", "lon": 127.011849, "lat": 37.572206, "score": 0.7724, "stay": 20}, {"id": "2067600527", "name": "하우투", "cat": "카페", "cat2": "카페", "gu": "성북구", "lon": 127.018384, "lat": 37.591806, "score": 0.7721, "stay": 20}, {"id": "351836429", "name": "쪽집게사주타로", "cat": "카페", "cat2": "카페", "gu": "종로구", "lon": 126.999955, "lat": 37.583096, "score": 0.7713, "stay": 20}, {"id": "1025546530", "name": "소울", "cat": "카페", "cat2": "카페", "gu": "종로구", "lon": 126.971412, "lat": 37.580446, "score": 0.7705, "stay": 20}, {"id": "44870375", "name": "정미소", "cat": "카페", "cat2": "카페", "gu": "종로구", "lon": 126.990008, "lat": 37.574527, "score": 0.7701, "stay": 20}, {"id": "484252397", "name": "카우보이", "cat": "카페", "cat2": "카페", "gu": "종로구", "lon": 126.973273, "lat": 37.573432, "score": 0.7698, "stay": 20}, {"id": "788384095", "name": "라미스콘 익선점", "cat": "카페", "cat2": "카페", "gu": "종로구", "lon": 126.990302, "lat": 37.573874, "score": 0.766, "stay": 20}, {"id": "1154343797", "name": "한옥찻집", "cat": "카페", "cat2": "카페", "gu": "종로구", "lon": 126.984865, "lat": 37.574594, "score": 0.766, "stay": 20}, {"id": "1600762232", "name": "프레드", "cat": "카페", "cat2": "카페", "gu": "종로구", "lon": 126.981526, "lat": 37.567826, "score": 0.7655, "stay": 20}, {"id": "136174693", "name": "머무름", "cat": "카페", "cat2": "카페", "gu": "종로구", "lon": 126.984754, "lat": 37.574493, "score": 0.7652, "stay": 20}, {"id": "15984181", "name": "폴링", "cat": "카페", "cat2": "카페", "gu": "종로구", "lon": 126.988177, "lat": 37.572403, "score": 0.7642, "stay": 20}, {"id": "8143287", "name": "학림다방", "cat": "카페", "cat2": "카페", "gu": "종로구", "lon": 127.001657, "lat": 37.58195, "score": 0.7614, "stay": 20}, {"id": "1067900892", "name": "칠린", "cat": "카페", "cat2": "카페", "gu": "종로구", "lon": 126.999361, "lat": 37.58217, "score": 0.7612, "stay": 20}, {"id": "682818717", "name": "리사르커피 종로점", "cat": "카페", "cat2": "카페", "gu": "종로구", "lon": 126.980366, "lat": 37.570445, "score": 0.7604, "stay": 20}, {"id": "206172834", "name": "수수커피 디타워점", "cat": "카페", "cat2": "카페", "gu": "종로구", "lon": 126.978927, "lat": 37.571072, "score": 0.7603, "stay": 20}, {"id": "1837149680", "name": "헤이커피", "cat": "카페", "cat2": "카페", "gu": "종로구", "lon": 127.000634, "lat": 37.582025, "score": 0.76, "stay": 20}, {"id": "468528939", "name": "카페키이로", "cat": "카페", "cat2": "카페", "gu": "종로구", "lon": 126.999728, "lat": 37.582098, "score": 0.7599, "stay": 20}, {"id": "1620441418", "name": "레인리포트 레인보우", "cat": "카페", "cat2": "카페", "gu": "종로구", "lon": 126.990106, "lat": 37.57343, "score": 0.7596, "stay": 20}, {"id": "1144355373", "name": "브릭스", "cat": "카페", "cat2": "카페", "gu": "종로구", "lon": 127.007208, "lat": 37.570879, "score": 0.758, "stay": 20}, {"id": "1918549955", "name": "익선동 라인카페", "cat": "카페", "cat2": "카페", "gu": "종로구", "lon": 126.989167, "lat": 37.573629, "score": 0.7574, "stay": 20}, {"id": "716586132", "name": "서울상회", "cat": "카페", "cat2": "카페", "gu": "종로구", "lon": 126.984062, "lat": 37.569636, "score": 0.756, "stay": 20}, {"id": "8103051", "name": "커피친구", "cat": "카페", "cat2": "카페", "gu": "종로구", "lon": 126.98165, "lat": 37.57242, "score": 0.7556, "stay": 20}, {"id": "11831528", "name": "커피한잔", "cat": "카페", "cat2": "카페", "gu": "종로구", "lon": 126.96794, "lat": 37.577066, "score": 0.7545, "stay": 20},